stop_id,stop_name,stop_lat,stop_lon,location_type,parent_station,wheelchair_boarding,level_id,platform_code
17204,Wallan Station,-37.416861,145.0053723,,vic:rail:WAN,1,Level 0,
19980,Melton Station,-37.70335908,144.5722158,,vic:rail:MEL,1,Level 0,
19981,Rockbank Station,-37.72919081,144.6507131,,vic:rail:RBK,1,Level 0,
19982,Deer Park Station,-37.77726729,144.7708312,,vic:rail:DEK,1,Level 0,
19998,Sunbury Station,-37.57914973,144.7280304,,vic:rail:SUY,1,Level 0,
20020,Ardeer Station,-37.7830262,144.801542,,vic:rail:ARR,1,Level 0,
20029,Craigieburn Station,-37.60227314,144.9431265,,vic:rail:CGB,1,Level 0,
20043,Southern Cross Station,-37.81838925,144.9520576,,vic:rail:SSS,1,Level 0,
20287,Albury Station,-36.08426161,146.9245154,,nsw:rail:ABY,1,Level 0,
20288,Ararat Station,-37.28220485,142.9369137,,vic:rail:ART,1,Level 0,
20289,Avenel Station,-36.89364778,145.229515,,vic:rail:AVL,1,Level 0,
20290,Bacchus Marsh Station,-37.68782809,144.4375023,,vic:rail:BAH,1,Level 0,
20291,Bairnsdale Station,-37.82877565,147.6273983,,vic:rail:BDE,1,Level 0,
20292,Ballan Station,-37.60429951,144.225448,,vic:rail:BLN,1,Level 0,
20293,Ballarat Station,-37.55865829,143.8595309,,vic:rail:BAT-V,1,Level 0,
20294,Beaufort Station,-37.42787497,143.3822337,,vic:rail:BET,1,Level 0,
20295,Benalla Station,-36.54455031,145.9839151,,vic:rail:BXA,1,Level 0,
20296,Bendigo Station,-36.76560312,144.2828545,,vic:rail:BGO,1,Level 0,
20297,Birregurra Station,-38.32880781,143.7836252,,vic:rail:BGE,1,Level 0,
20298,Broadford Station,-37.20731649,145.0429373,,vic:rail:BRF,1,Level 0,
20299,Bunyip Station,-38.09910771,145.7207575,,vic:rail:BYP,1,Level 0,
20300,Camperdown Station,-38.22890091,143.1509278,,vic:rail:CPD,1,Level 0,
20301,Castlemaine Station,-37.0628859,144.2139434,,vic:rail:CME,1,Level 0,
20302,Chiltern Station,-36.15563663,146.6113748,,vic:rail:CHI,1,Level 0,
20303,Clarkefield Station,-37.48355944,144.7453029,,vic:rail:CKF,1,Level 0,
20304,Colac Station,-38.34337792,143.5866531,,vic:rail:COL,1,Level 0,
20305,Corio Station,-38.07283126,144.3797684,,vic:rail:COR,1,Level 0,
20306,Dingee Station,-36.36923291,144.2311203,,vic:rail:DGE,1,Level 0,
20307,Donnybrook Station,-37.5420263,144.9701244,,vic:rail:DBK,1,Level 0,
20308,Drouin Station,-38.13637147,145.8560167,,vic:rail:DRN,1,Level 0,
20309,Eaglehawk Station,-36.71852539,144.2483799,,vic:rail:EAG-V,1,Level 0,
20310,Echuca Station,-36.131043,144.7533347,,vic:rail:ECH,1,Level 0,
20311,Elmore Station,-36.49483741,144.6076404,,vic:rail:EME,1,Level 0,
20312,Euroa Station,-36.7491306,145.5680886,,vic:rail:EOA,1,Level 0,
20313,Garfield Station,-38.09103062,145.6742247,,vic:rail:GAR-V,1,Level 0,
20314,Geelong Station,-38.14424211,144.3549891,,vic:rail:GEL,1,Level 0,
20315,Gisborne Station,-37.45900212,144.5989872,,vic:rail:GIS,1,Level 0,
20316,Heathcote Junction Station,-37.37166409,145.0279465,,vic:rail:HCJ,1,Level 0,
20317,Kangaroo Flat Station,-36.79483286,144.2489566,,vic:rail:KFT,1,Level 0,
20318,Kerang Station,-35.73312162,143.9244251,,vic:rail:KER,1,Level 0,
20319,Kilmore East Station,-37.29365111,144.9835204,,vic:rail:KET,1,Level 0,
20320,Kyneton Station,-37.25836427,144.4508016,,vic:rail:KYN,1,Level 0,
20321,Lara Station,-38.02242764,144.4144043,,vic:rail:LRA,1,Level 0,
20323,Little River Station,-37.96292909,144.4984849,,vic:rail:LRR,1,Level 0,
20324,Longwarry Station,-38.11099211,145.7668603,,vic:rail:LWY,1,Level 0,
20325,Macedon Station,-37.42366057,144.5612584,,vic:rail:MDN,1,Level 0,
20326,Malmsbury Station,-37.18977634,144.3753219,,vic:rail:MMY-V,1,Level 0,
20327,Marshall Station,-38.198549,144.3550567,,vic:rail:MAS,1,Level 0,
20328,Moe Station,-38.17690856,146.2605716,,vic:rail:MOE,1,Level 0,
20329,Mooroopna Station,-36.39912828,145.3582148,,vic:rail:MPA,1,Level 0,
20330,Morwell Station,-38.23671876,146.3967531,,vic:rail:MWL,1,Level 0,
20331,Murchison East Station,-36.61314794,145.2406356,,vic:rail:MST,1,Level 0,
20332,Nagambie Station,-36.7854641,145.1603567,,vic:rail:NGE,1,Level 0,
20333,Nar Nar Goon Station,-38.08150256,145.5717587,,vic:rail:NNG,1,Level 0,
20334,North Geelong Station,-38.12283523,144.3522719,,vic:rail:NGL,1,Level 0,
20335,North Shore Station,-38.09837714,144.3653214,,vic:rail:NSH,1,Level 0,
20336,Pyramid Station,-36.05311274,144.1131327,,vic:rail:PYD,1,Level 0,
20337,Riddells Creek Station,-37.46490085,144.6799507,,vic:rail:RIK,1,Level 0,
20338,Rochester Station,-36.36229401,144.698505,,vic:rail:ROR,1,Level 0,
20339,Rosedale Station,-38.15640367,146.7869664,,vic:rail:ROE,1,Level 0,
20341,Sale Station,-38.10310272,147.0548051,,vic:rail:SAE,1,Level 0,
20342,Seymour Station,-37.02439853,145.1385123,,vic:rail:SER,1,Level 0,
20343,Shepparton Station,-36.38381106,145.4059731,,vic:rail:SNH,1,Level 0,
20344,South Geelong Station,-38.15865863,144.3589871,,vic:rail:SOG,1,Level 0,
20345,Springhurst Station,-36.1858934,146.470417,,vic:rail:SHT,1,Level 0,
20346,Stratford Station,-37.96704739,147.0814695,,vic:rail:STD,1,Level 0,
20347,Swan Hill Station,-35.34111357,143.5623432,,vic:rail:SWL,1,Level 0,
20348,Tallarook Station,-37.0923313,145.1027949,,vic:rail:TOK,1,Level 0,
20349,Terang Station,-38.23621199,142.9114722,,vic:rail:TER,1,Level 0,
20350,Trafalgar Station,-38.2072423,146.1547728,,vic:rail:TAR,1,Level 0,
20351,Traralgon Station,-38.19854647,146.5389007,,vic:rail:TRN,1,Level 0,
20352,Tynong Station,-38.08488125,145.6284189,,vic:rail:TYN,1,Level 0,
20353,Violet Town Station,-36.63881606,145.7159235,,vic:rail:VTN,1,Level 0,
20355,Wandong Station,-37.35524821,145.026615,,vic:rail:WDG,1,Level 0,
20356,Wangaratta Station,-36.35510089,146.3170385,,vic:rail:WRT,1,Level 0,
20357,Warragul Station,-38.16478926,145.932829,,vic:rail:WGL,1,Level 0,
20358,Warrnambool Station,-38.38501396,142.475545,,vic:rail:WBL,1,Level 0,
20359,Winchelsea Station,-38.24013506,143.9841339,,vic:rail:WIA,1,Level 0,
20360,Wodonga Station,-36.1058271,146.8712657,,vic:rail:WOD,1,Level 0,
20361,Woodend Station,-37.35929126,144.5261788,,vic:rail:WNO,1,Level 0,
20362,Yarragon Station,-38.20315754,146.0630628,,vic:rail:YON,1,Level 0,
22238,Flinders Street Station,-37.81830513,144.9669644,,vic:rail:FSS,1,Level 0,
22239,North Melbourne Station,-37.80755595,144.9421684,,vic:rail:NME,1,Level 0,
22240,Footscray Station,-37.80157779,144.9021403,,vic:rail:FSY,1,Level 0,
22241,Sunshine Station,-37.78833946,144.8324638,,vic:rail:SUN,1,Level 0,
22244,Watergardens Station,-37.70097389,144.7740944,,vic:rail:WGS,1,Level 0,
22247,Richmond Station,-37.82407446,144.9901643,,vic:rail:RMD,1,Level 0,
22248,Caulfield Station,-37.87722507,145.0425196,,vic:rail:CFD,1,Level 1,
22249,Clayton Station,-37.92456781,145.1206852,,vic:rail:CLA,1,Level 0,
22250,Dandenong Station,-37.98996792,145.2097254,,vic:rail:DNG,1,Level 0,
22251,Berwick Station,-38.0395774,145.3449585,,vic:rail:BEW,1,Level 0,
22252,Pakenham Station,-38.08061383,145.4863677,,vic:rail:PKM,1,Level 0,
22253,Essendon Station,-37.75600088,144.9160957,,vic:rail:ESD,1,Level 0,
22254,Broadmeadows Station,-37.68295879,144.9195931,,vic:rail:BMS,1,Level 0,
22257,Sherwood Park Station,-38.38639224,142.5388712,,vic:rail:SDP,1,Level 0,
43469,Wendouree Station,-37.53973228,143.819999,,vic:rail:WED,1,Level 0,
44951,Creswick Station,-37.42460539,143.8881237,,vic:rail:CWK,1,Level 0,
44952,Clunes Station,-37.30273815,143.7820111,,vic:rail:CLU,1,Level 0,
44953,Maryborough Station,-37.05090849,143.7424023,,vic:rail:MBY,1,Level 0,
47482,Talbot Station,-37.17184115,143.706148,,vic:rail:TAT,1,Level 0,
47641,Waurn Ponds Station,-38.21595887,144.3064372,,vic:rail:WPP,1,Level 0,
47642,Epsom Station,-36.70675355,144.3209245,,vic:rail:EPM,1,Level 0,
47647,Wyndham Vale Station,-37.87288647,144.6087319,,vic:rail:WVL,1,Level 0,
47648,Tarneit Station,-37.83216813,144.6947144,,vic:rail:TNT,1,Level 0,
48804,Cobblebank Station,-37.71252223,144.6038477,,vic:rail:TLN,1,Level 0,
49295,Raywood Station,-36.53420922,144.2014149,,vic:rail:RAY,1,Level 0,
49296,Huntly Station,-36.66639019,144.3682582,,vic:rail:HUY,1,Level 0,
51809,Goornong Station,-36.61480046,144.5045598,,vic:rail:GRG,1,Level 0,
52011,Caroline Springs Station,-37.76609003,144.7357156,,vic:rail:RVH,1,Level 0,
nsw:rail:ABY,Albury Railway Station,-36.0850459,146.9243814,1,,1,,
vic:rail:ARR,Ardeer Railway Station,-37.78306529,144.8021881,1,,1,,
vic:rail:ART,Ararat Railway Station,-37.28224082,142.9369118,1,,1,,
vic:rail:AVL,Avenel Railway Station,-36.89364778,145.229515,1,,1,,
vic:rail:BAH,Bacchus Marsh Railway Station,-37.68757821,144.4367852,1,,1,,
vic:rail:BAT-V,Ballarat Railway Station,-37.55879148,143.8594574,1,,1,,
vic:rail:BDE,Bairnsdale Railway Station,-37.82872043,147.6276138,1,,1,,
vic:rail:BET,Beaufort Railway Station,-37.42762724,143.3823812,1,,1,,
vic:rail:BEW,Berwick Railway Station,-38.03998037,145.3454167,1,,1,,
vic:rail:BGE,Birregurra Railway Station,-38.32880781,143.7836252,1,,1,,
vic:rail:BGO,Bendigo Railway Station,-36.76566973,144.2830089,1,,1,,
vic:rail:BLN,Ballan Railway Station,-37.60429951,144.225448,1,,1,,
vic:rail:BMS,Broadmeadows Railway Station,-37.68304926,144.9196132,1,,1,,
vic:rail:BRF,Broadford Railway Station,-37.20720049,145.0430079,1,,1,,
vic:rail:BXA,Benalla Railway Station,-36.54455031,145.9839151,1,,1,,
vic:rail:BYP,Bunyip Railway Station,-38.09910771,145.7207575,1,,1,,
vic:rail:CFD,Caulfield Railway Station,-37.87745946,145.0425248,1,,1,,
vic:rail:CGB,Craigieburn Railway Station,-37.6019248,144.943306,1,,1,,
vic:rail:CHI,Chiltern Railway Station,-36.15563663,146.6113748,1,,1,,
vic:rail:CKF,Clarkefield Railway Station,-37.48349769,144.7453726,1,,1,,
vic:rail:CLA,Clayton Railway Station,-37.92468255,145.1205344,1,,1,,
vic:rail:CLU,Clunes Railway Station,-37.30301059,143.7820897,1,,1,,
vic:rail:CME,Castlemaine Railway Station,-37.06284167,144.2139788,1,,1,,
vic:rail:COL,Colac Railway Station,-38.34337792,143.5866531,1,,1,,
vic:rail:COR,Corio Railway Station,-38.07283126,144.3797684,1,,1,,
vic:rail:CPD,Camperdown Railway Station,-38.22890091,143.1509278,1,,1,,
vic:rail:CWK,Creswick Railway Station,-37.42460539,143.8881237,1,,1,,
vic:rail:DBK,Donnybrook Railway Station,-37.54202766,144.9702036,1,,1,,
vic:rail:DEK,Deer Park Railway Station,-37.77728102,144.7710806,1,,1,,
vic:rail:DGE,Dingee Railway Station,-36.36923291,144.2311203,1,,1,,
vic:rail:DNG,Dandenong Railway Station,-37.98996792,145.2097254,1,,1,,
vic:rail:DRN,Drouin Railway Station,-38.1364519,145.8559469,1,,1,,
vic:rail:EAG-V,Eaglehawk Railway Station,-36.71852539,144.2483799,1,,1,,
vic:rail:ECH,Echuca Railway Station,-36.13098223,144.7534587,1,,1,,
vic:rail:EME,Elmore Railway Station,-36.49502002,144.6077575,1,,1,,
vic:rail:EOA,Euroa Railway Station,-36.74918387,145.5680204,1,,1,,
vic:rail:EPM,Epsom Railway Station,-36.70628781,144.3210526,1,,1,,
vic:rail:ESD,Essendon Railway Station,-37.7560117,144.9161975,1,,1,,
vic:rail:FSS,Flinders Street Railway Station,-37.81830513,144.9669644,1,,1,,
vic:rail:FSY,Footscray Railway Station,-37.80141343,144.9020201,1,,1,,
vic:rail:GAR-V,Garfield Railway Station,-38.09103062,145.6742247,1,,1,,
vic:rail:GEL,Geelong Railway Station ,-38.14470898,144.3549152,1,,1,,
vic:rail:GIS,Gisborne Railway Station,-37.4588255,144.5987216,1,,1,,
vic:rail:GRG,Goornong Railway Station,-36.61518327,144.5034742,1,,1,,
vic:rail:HCJ,Heathcote Junction Railway Station,-37.37172322,145.0282499,1,,1,,
vic:rail:HUY,Huntly Railway Station,-36.66584794,144.3698205,1,,1,,
vic:rail:KER,Kerang Railway Station,-35.73312162,143.9244251,1,,1,,
vic:rail:KET,Kilmore East Station,-37.29321027,144.983566,1,,1,,
vic:rail:KFT,Kangaroo Flat Railway Station,-36.79483364,144.2489902,1,,1,,
vic:rail:KYN,Kyneton Railway Station,-37.25827885,144.4506016,1,,1,,
vic:rail:LRA,Lara Railway Station,-38.02242764,144.4144043,1,,1,,
vic:rail:LRR,Little River Railway Station,-37.96292909,144.4984849,1,,1,,
vic:rail:LWY,Longwarry Railway Station,-38.11099211,145.7668603,1,,1,,
vic:rail:MAS,Marshall Railway Station,-38.198549,144.3550567,1,,1,,
vic:rail:MBY,Maryborough Railway Station,-37.05090849,143.7424023,1,,1,,
vic:rail:MDN,Macedon Railway Station,-37.42357331,144.5613969,1,,1,,
vic:rail:MEL,Melton Railway Station,-37.70347382,144.5720986,1,,1,,
vic:rail:MMY-V,Malmsbury Railway Station,-37.18974032,144.3753232,1,,1,,
vic:rail:MOE,Moe Railway Station,-38.17689039,146.260549,1,,1,,
vic:rail:MPA,Mooroopna Railway Station,-36.39912828,145.3582148,1,,1,,
vic:rail:MST,Murchison East Railway Station,-36.61314794,145.2406356,1,,1,,
vic:rail:MWL,Morwell Railway Station,-38.23674592,146.3967757,1,,1,,
vic:rail:NGE,Nagambie Railway Station,-36.7854641,145.1603567,1,,1,,
vic:rail:NGL,North Geelong Railway Station,-38.12268295,144.3523116,1,,1,,
vic:rail:NME,North Melbourne Railway Station,-37.80630984,144.9415102,1,,1,,
vic:rail:NNG,Nar Nar Goon Railway Station,-38.08159155,145.5716657,1,,1,,
vic:rail:NSH,North Shore Railway Station,-38.09837714,144.3653214,1,,1,,
vic:rail:PKM,Pakenham Railway Station,-38.08061397,145.4863791,1,,1,,
vic:rail:PYD,Pyramid Railway Station,-36.0534147,144.1133215,1,,1,,
vic:rail:RAY,Raywood Railway Station,-36.53195927,144.201161,1,,1,,
vic:rail:RBK,Rockbank Railway Station,-37.72926127,144.6506315,1,,1,,
vic:rail:RIK,Riddells Creek Railway Station,-37.46512379,144.6798307,1,,1,,
vic:rail:RMD,Richmond Railway Station,-37.82407446,144.9901643,1,,1,,
vic:rail:ROE,Rosedale Railway Station,-38.15640367,146.7869664,1,,1,,
vic:rail:ROR,Rochester Railway Station,-36.3623605,144.6986813,1,,1,,
vic:rail:RVH,Caroline Springs Railway Station,-37.76612649,144.7357372,1,,1,,
vic:rail:SAE,Sale Railway Station,-38.10310272,147.0548051,1,,1,,
vic:rail:SDP,Sherwood Park Railway Station,-38.38638239,142.5388489,1,,1,,
vic:rail:SER,Seymour Railway Station,-37.02472873,145.1377286,1,,1,,
vic:rail:SHT,Springhurst Railway Station,-36.1858934,146.470417,1,,1,,
vic:rail:SNH,Shepparton Railway Station,-36.38379101,145.4064975,1,,1,,
vic:rail:SOG,South Geelong Railway Station,-38.15865863,144.3589871,1,,1,,
vic:rail:SSS,Southern Cross Railway Station,-37.8186631,144.9527771,1,,1,,
vic:rail:STD,Stratford Railway Station,-37.96704739,147.0814695,1,,1,,
vic:rail:SUN,Sunshine Railway Station,-37.78853633,144.8328782,1,,1,,
vic:rail:SUY,Sunbury Railway Station,-37.57928396,144.727981,1,,1,,
vic:rail:SWL,Swan Hill Railway Station,-35.34111357,143.5623432,1,,1,,
vic:rail:TAR,Trafalgar Railway Station,-38.2072423,146.1547728,1,,1,,
vic:rail:TAT,Talbot Railway Station,-37.17289923,143.7056403,1,,1,,
vic:rail:TER,Terang Railway Station,-38.23621199,142.9114722,1,,1,,
vic:rail:TLN,Cobblebank Railway Station,-37.71254554,144.6041078,1,,1,,
vic:rail:TNT,Tarneit Railway Station,-37.83215468,144.6944876,1,,1,,
vic:rail:TOK,Tallarook Railway Station,-37.09233454,145.1029973,1,,1,,
vic:rail:TRN,Traralgon Railway Station,-38.19888494,146.5378821,1,,1,,
vic:rail:TYN,Tynong Railway Station,-38.08499626,145.6282343,1,,1,,
vic:rail:VTN,Violet Town Railway Station,-36.63881606,145.7159235,1,,1,,
vic:rail:WAN,Wallan Railway Station,-37.41653632,145.0053583,1,,1,,
vic:rail:WBL,Warrnambool Railway Station,-38.38501396,142.475545,1,,1,,
vic:rail:WDG,Wandong Railway Station,-37.3546771,145.0264154,1,,1,,
vic:rail:WED,Wendouree Railway Station,-37.53997217,143.8212108,1,,1,,
vic:rail:WGL,Warragul Railway Station,-38.16522418,145.9330853,1,,1,,
vic:rail:WGS,Watergardens Railway Station,-37.70111071,144.774181,1,,1,,
vic:rail:WIA,Winchelsea Railway Station,-38.24013506,143.9841339,1,,1,,
vic:rail:WNO,Woodend Railway Station,-37.35879859,144.5258901,1,,1,,
vic:rail:WOD,Wodonga Railway Station,-36.10584513,146.8712657,1,,1,,
vic:rail:WPP,Waurn Ponds Railway Station,-38.21580573,144.3068311,1,,1,,
vic:rail:WRT,Wangaratta Railway Station,-36.35515492,146.3170268,1,,1,,
vic:rail:WVL,Wyndham Vale Railway Station,-37.87252742,144.608357,1,,1,,
vic:rail:YON,Yarragon Railway Station,-38.20315754,146.0630628,1,,1,,
,,,,,,,,
20043,Southern Cross Station,-37.81838925,144.9520576,,vic:rail:SSS,1,Level 0,
20288,Ararat Station,-37.28220485,142.9369137,,vic:rail:ART,1,Level 0,
20335,North Shore Station,-38.09837714,144.3653214,,vic:rail:NSH,1,Level 0,
20600,Adelaide Station,-34.93816666,138.5813108,,sa:rail:ADE,1,Level 0,
20609,Murray Bridge Station,-35.11664396,139.2755541,,sa:rail:MUR,1,Level 0,
20614,Bordertown Station,-36.31055734,140.7776215,,sa:rail:BOR,1,Level 0,
20616,Nhill Station,-36.33222225,141.6538899,,vic:rail:NHL,1,Level 0,
20617,Dimboola Station,-36.45418003,142.0324644,,vic:rail:DIM,1,Level 0,
20618,Horsham Station,-36.70750142,142.2005555,,vic:rail:HRM,1,Level 0,
45918,Stawell Station,-37.05924027,142.7735382,,vic:rail:STL,1,Level 0,
sa:rail:ADE,Adelaide Railway Station,-34.93817407,138.5812883,1,,1,,
sa:rail:BOR,Bordertown Railway Station,-36.30860713,140.7738853,1,,1,,
sa:rail:MUR,Murray Bridge Railway Station,-35.11694136,139.2752852,1,,1,,
vic:rail:ART,Ararat Railway Station,-37.28224082,142.9369118,1,,1,,
vic:rail:DIM,Dimboola Railway Station,-36.45418003,142.0324644,1,,1,,
vic:rail:HRM,Horsham Railway Station,-36.70750142,142.2005555,1,,1,,
vic:rail:NHL,Nhill Railway Station,-36.33222225,141.6538899,1,,1,,
vic:rail:NSH,North Shore Railway Station,-38.09837714,144.3653214,1,,1,,
vic:rail:SSS,Southern Cross Railway Station,-37.8186631,144.9527771,1,,1,,
vic:rail:STL,Stawell Railway Station,-37.06000044,142.7738894,1,,1,,
,,,,,,,,
1100,Broadway/Glen Huntly Rd,-37.88211832,144.9822201,,,0,Level 0,
1109,Inkerman St/Barkly St,-37.8637296,144.9819374,,,0,Level 0,
1414,Bay St/New St,-37.90409768,144.9932775,,,0,Level 0,
14948,Moorabbin Station/Nepean Hwy,-37.93461459,145.0361966,,,0,Level 0,
20394,Head St/New St,-37.89178266,144.9956247,,,0,Level 0,
20400,North Brighton Station/Bay St,-37.90553659,145.0031675,,,0,Level 0,
20983,Southland Shopping Centre/Karen St ,-37.95816545,145.0531998,,,0,Level 0,
21218,Frankston Railway Station/Young St,-38.14221121,145.1259198,,,0,Level 0,
23173,Skybus Coach Terminal/Spencer St,-37.81627776,144.9519001,,,0,Level 0,
23175,Skybus Coach Terminal/Spencer St,-37.81646016,144.9525426,,,0,Level 0,
23183,Skybus Coach Terminal/Spencer St,-37.81604041,144.9517249,,,0,Level 0,
3245,Bay St/New St,-37.90391539,144.9931573,,,0,Level 0,
3633,North Brighton Station/Bay St,-37.90550906,145.0020764,,,0,Level 0,
3749,Head St/New St,-37.89173491,144.9954668,,,0,Level 0,
3752,Elsternwick Station/20 Horne St,-37.88511238,145.0002969,,,0,Level 0,
40272,Avalon Airport/Outside Terminal,-38.02635181,144.4734321,,,0,Level 0,
40284,Avalon Airport/Outside Terminal,-38.02635181,144.4734321,,,0,Level 0,
42273,Chelsea Railway Station/Station St,-38.05194011,145.1162127,,,0,Level 0,
45511,Melbourne Airport T1 Skybus/Arrival Dr,-37.66933128,144.8506809,,,0,Level 0,
45513,Melbourne Airport T3 Skybus/Arrival Dr,-37.67093605,144.8487413,,,0,Level 0,
48578,Melbourne Airport T4 Skybus/Service Rd,-37.67232219,144.8491434,,,0,Level 0,
48784,Quest/435-437 Nepean Hwy,-38.14234913,145.1215803,,,0,Level 0,
48786,389 Nepean Hwy,-38.05125946,145.1153526,,,0,Level 0,
48787,938 Nepean Hwy,-37.93675503,145.0370157,,,0,Level 0,
5184,Werribee RSL/Synnot St,-37.90120703,144.6642785,,,0,Level 0,
7183,Werribee RSL/Synnot St,-37.90134708,144.6645242,,,0,Level 0,
894,Elsternwick Station/Horne St,-37.88489601,145.0002914,,,0,Level 0,
901,Ormond Rd/Glen Huntly Rd,-37.8823217,144.9830445,,,0,Level 0,
910,Fawkner St/Barkly St,-37.86455283,144.9815967,,,0,Level 0,
9349,Rogers St/Balcombe Rd,-37.98172183,145.0690407,,,0,Level 0,
9629,Rogers St/Balcombe Rd,-37.98184043,145.0691287,,,0,Level 0,
,,,,,,,,
10117,Jordanville Station,-37.87376273,145.1124726,,vic:rail:JOR,1,Level 0,1
10920,Flagstaff Station,-37.81187992,144.9560428,,vic:rail:FGS,1,Level -2,1
10921,Flagstaff Station,-37.81172541,144.9559675,,vic:rail:FGS,1,Level -2,2
10922,Melbourne Central Station,-37.80997401,144.9625471,,vic:rail:MCE,1,Level -2,1
10923,Melbourne Central Station,-37.80986514,144.9625047,,vic:rail:MCE,1,Level -2,2
10924,Parliament Station,-37.81100921,144.9729235,,vic:rail:PAR,1,Level -2,1
11119,Belgrave Station,-37.9091367,145.3551881,,vic:rail:BEG,1,Level 0,1
11120,Belgrave Station,-37.90909987,145.3551321,,vic:rail:BEG,1,Level 0,2
11121,Tecoma Station,-37.90809018,145.3429042,,vic:rail:TCM,1,Level 0,1
11122,Upwey Station,-37.90371012,145.3314125,,vic:rail:UPW,1,Level 0,1
11123,Upwey Station,-37.90361053,145.3313807,,vic:rail:UPW,1,Level 0,2
11197,Alamein Station,-37.86818601,145.0797046,,vic:rail:ALM,1,Level 0,1
11198,Ashburton Station,-37.86193224,145.0813901,,vic:rail:ASH,1,Level 0,1
11199,Burwood Station,-37.85162801,145.0806117,,vic:rail:BWD,1,Level 0,2
11200,Burwood Station,-37.851744,145.0805405,,vic:rail:BWD,1,Level 0,1
11201,Hartwell Station,-37.84384815,145.0754836,,vic:rail:HWL,1,Level 0,2
11202,Hartwell Station,-37.84388325,145.0754259,,vic:rail:HWL,1,Level 0,1
11203,Willison Station,-37.83566968,145.0702419,,vic:rail:WSN,1,Level 0,1
11204,Willison Station,-37.83568036,145.0703439,,vic:rail:WSN,1,Level 0,2
11205,Riversdale Station,-37.83129806,145.06964,,vic:rail:RIV,1,Level 0,1
11206,Riversdale Station,-37.83162291,145.0696656,,vic:rail:RIV,1,Level 0,2
11207,Camberwell Station,-37.82668783,145.0583645,,vic:rail:CAM,1,Level -2,1
11208,Camberwell Station,-37.82659756,145.0583555,,vic:rail:CAM,1,Level -2,2
11209,Camberwell Station,-37.82651798,145.0584485,,vic:rail:CAM,1,Level -2,3
11210,Parliament Station,-37.81091306,144.9730965,,vic:rail:PAR,1,Level -2,2
11212,Flinders Street Station,-37.81851165,144.9648343,,vic:rail:FSS,1,Level 0,1
11213,Flinders Street Station,-37.81830668,144.9660101,,vic:rail:FSS,1,Level 0,2
11214,Flinders Street Station,-37.81822445,144.9664667,,vic:rail:FSS,1,Level 0,3
11215,Flinders Street Station,-37.81828907,144.9665558,,vic:rail:FSS,1,Level 0,4
11216,Flinders Street Station,-37.81832588,144.9666003,,vic:rail:FSS,1,Level 0,5
11217,Flinders Street Station,-37.81837661,144.9669283,,vic:rail:FSS,1,Level 0,6
11218,Flinders Street Station,-37.81849057,144.9667434,,vic:rail:FSS,1,Level 0,7
11219,Jordanville Station,-37.8737085,145.1124627,,vic:rail:JOR,1,Level 0,2
11220,Frankston Station,-38.1426818,145.1260447,,vic:rail:FKN,1,Level 0,1
11221,Frankston Station,-38.14270218,145.1261925,,vic:rail:FKN,1,Level 0,2
11222,Kananook Station,-38.12171555,145.1353302,,vic:rail:KAN,1,Level 0,1
11223,Kananook Station,-38.12171646,145.1353873,,vic:rail:KAN,1,Level 0,2
11224,Seaford Station,-38.10434442,145.1281651,,vic:rail:SEA,1,Level 0,1
11225,Seaford Station,-38.1044183,145.1282773,,vic:rail:SEA,1,Level 0,2
11226,Carrum Station,-38.07760641,145.1230443,,vic:rail:CAR,1,Level 0,1
11227,Carrum Station,-38.07759831,145.1231015,,vic:rail:CAR,1,Level 0,2
11228,Bonbeach Station,-38.06555519,145.1200582,,vic:rail:BON,1,Level -1,1
11229,Bonbeach Station,-38.06555701,145.1201721,,vic:rail:BON,1,Level -1,2
11230,Chelsea Station,-38.05320706,145.1165449,,vic:rail:CSA,1,Level -1,1
11231,Chelsea Station,-38.05315447,145.1166374,,vic:rail:CSA,1,Level -1,2
11232,Edithvale Station,-38.03628004,145.1073735,,vic:rail:EDI,1,Level -1,1
11233,Edithvale Station,-38.03629124,145.1075099,,vic:rail:EDI,1,Level -1,2
11234,Aspendale Station,-38.02683635,145.1018178,,vic:rail:ASP,1,Level 0,1
11235,Aspendale Station,-38.02678395,145.1019216,,vic:rail:ASP,1,Level 0,2
11236,Mordialloc Station,-38.00632554,145.0873472,,vic:rail:MOR,1,Level 0,1
11237,Mordialloc Station,-38.00641988,145.0876067,,vic:rail:MOR,1,Level 0,2
11238,Parkdale Station,-37.99290246,145.0760126,,vic:rail:PKD,1,Level 0,1
11239,Parkdale Station,-37.99283263,145.0761511,,vic:rail:PKD,1,Level 0,2
11240,Mentone Station,-37.98362356,145.0663152,,vic:rail:MEN,1,Level 0,1
11241,Mentone Station,-37.98357139,145.0664305,,vic:rail:MEN,1,Level 0,2
11242,Cheltenham Station,-37.96662137,145.0544676,,vic:rail:CTM,1,Level 0,2
11243,Cheltenham Station,-37.96662924,145.0543991,,vic:rail:CTM,1,Level 0,1
11244,Cheltenham Station,-37.96654199,145.0545722,,vic:rail:CTM,1,Level 0,3
11245,Upper Ferntree Gully Station,-37.89259619,145.3072931,,vic:rail:UFG,1,Level 0,1
11246,Upper Ferntree Gully Station,-37.89249448,145.3071135,,vic:rail:UFG,1,Level 0,2
11247,Ferntree Gully Station,-37.88134219,145.2949525,,vic:rail:FTG,1,Level 0,1
11248,Ferntree Gully Station,-37.88128978,145.2950674,,vic:rail:FTG,1,Level 0,2
11249,Boronia Station,-37.86052901,145.2847357,,vic:rail:BOR,1,Level 0,1
11409,Boronia Station,-37.8604938,145.2847934,,vic:rail:BOR,1,Level 0,2
11410,Bayswater Station,-37.84186584,145.2681787,,vic:rail:BAY,1,Level 0,1
11411,Bayswater Station,-37.8418213,145.2682138,,vic:rail:BAY,1,Level 0,2
11412,Heathmont Station,-37.82849361,145.2445627,,vic:rail:HMT,1,Level 0,1
11413,Heathmont Station,-37.82845009,145.244666,,vic:rail:HMT,1,Level 0,2
11471,Highett Station,-37.9480226,145.0415183,,vic:rail:HIG,1,Level 0,1
12158,Glen Waverley Station,-37.87953181,145.1621023,,vic:rail:GWY,1,Level 0,1
12159,Glen Waverley Station,-37.87949595,145.1621146,,vic:rail:GWY,1,Level 0,2
12160,Syndal Station,-37.87628768,145.1494607,,vic:rail:SYN,1,Level 0,1
12161,Syndal Station,-37.876243,145.1494846,,vic:rail:SYN,1,Level 0,2
12162,Mount Waverley Station,-37.87533705,145.1280991,,vic:rail:MWY,1,Level 0,1
12163,Mount Waverley Station,-37.87521995,145.1281021,,vic:rail:MWY,1,Level 0,2
12164,Lilydale Station,-37.75541252,145.3479169,,vic:rail:LIL,1,Level 0,1
12165,Lilydale Station,-37.75542831,145.3477576,,vic:rail:LIL,1,Level 0,2
12166,Mooroolbark Station,-37.78470413,145.3136866,,vic:rail:MLK,1,Level 0,1
12167,Mooroolbark Station,-37.78465024,145.3136992,,vic:rail:MLK,1,Level 0,2
12168,Croydon Station,-37.79536639,145.2807016,,vic:rail:CDN,1,Level 0,1
12169,Croydon Station,-37.79536357,145.2805086,,vic:rail:CDN,1,Level 0,2
12170,Ringwood East Station,-37.81171674,145.2508671,,vic:rail:RWE,1,Level 0,1
12171,Ringwood East Station,-37.81166285,145.2508797,,vic:rail:RWE,1,Level 0,2
12172,Pakenham Station,-38.08050747,145.4865067,,vic:rail:PKM,1,Level 0,1
12173,Pakenham Station,-38.08044499,145.4865536,,vic:rail:PKM,1,Level 0,2
12174,Officer Station,-38.0663162,145.4115991,,vic:rail:OFC,1,Level 0,1
12175,Officer Station,-38.06624567,145.4117146,,vic:rail:OFC,1,Level 0,2
12176,Beaconsfield Station,-38.05112566,145.3665003,,vic:rail:BFD,1,Level 0,1
12177,Beaconsfield Station,-38.05107192,145.3665243,,vic:rail:BFD,1,Level 0,2
12178,Berwick Station,-38.04022282,145.3453542,,vic:rail:BEW,1,Level 0,1
12179,Berwick Station,-38.04014222,145.3453902,,vic:rail:BEW,1,Level 0,2
12180,Narre Warren Station,-38.02766369,145.3038702,,vic:rail:NWA,1,Level 0,1
12181,Narre Warren Station,-38.02753839,145.3039301,,vic:rail:NWA,1,Level 0,2
12182,Hallam Station,-38.01794675,145.269715,,vic:rail:HLM,1,Level 0,1
12183,Hallam Station,-38.01782079,145.2697293,,vic:rail:HLM,1,Level 0,2
12184,Cranbourne Station,-38.09958952,145.2804723,,vic:rail:CBE,1,Level 0,1
12185,Cranbourne Station,-38.09998724,145.28117,,vic:rail:CBE,1,Level 0,2
12186,Merinda Park Station,-38.07904333,145.2633622,,vic:rail:MPK,1,Level 0,1
12187,Dandenong Station,-37.99003808,145.2095984,,vic:rail:DNG,1,Level 0,1
12188,Dandenong Station,-37.99016056,145.2099484,,vic:rail:DNG,1,Level 0,2
12189,Dandenong Station,-37.99010859,145.2100863,,vic:rail:DNG,1,Level 0,3
12190,Yarraman Station,-37.97773178,145.1910097,,vic:rail:YMN,1,Level 0,1
12191,Yarraman Station,-37.97769627,145.1910447,,vic:rail:YMN,1,Level 0,2
12192,Noble Park Station,-37.96622266,145.1757768,,vic:rail:NPK,1,Level 0,1
12193,Noble Park Station,-37.96619634,145.175823,,vic:rail:NPK,1,Level 0,2
12194,Sandown Park Station,-37.95649396,145.1627237,,vic:rail:SNP,1,Level 0,1
12195,Flagstaff Station,-37.81193456,144.9560753,,vic:rail:FGS,1,Level -3,3
12196,Flagstaff Station,-37.81175303,144.9560008,,vic:rail:FGS,1,Level -3,4
12197,Melbourne Central Station,-37.8099652,144.9625587,,vic:rail:MCE,1,Level -3,3
12198,Melbourne Central Station,-37.80991898,144.9624919,,vic:rail:MCE,1,Level -3,4
12199,Parliament Station,-37.81097201,144.9728564,,vic:rail:PAR,1,Level -3,3
12200,Parliament Station,-37.81092148,144.9730622,,vic:rail:PAR,1,Level -3,4
12201,Flinders Street Station,-37.81845378,144.9682667,,vic:rail:FSS,1,Level 0,13
12202,Flinders Street Station,-37.81840717,144.9681771,,vic:rail:FSS,1,Level 0,12
12203,Flinders Street Station,-37.81891371,144.9661979,,vic:rail:FSS,1,Level 0,10
12204,Flinders Street Station,-37.81860101,144.9668767,,vic:rail:FSS,1,Level 0,9
12205,Flinders Street Station,-37.81855617,144.9668893,,vic:rail:FSS,1,Level 0,8
12206,East Camberwell Station,-37.82584107,145.0682484,,vic:rail:ECM,1,Level 0,1
12207,East Camberwell Station,-37.82578721,145.0682612,,vic:rail:ECM,1,Level 0,2
12208,East Camberwell Station,-37.82568794,145.0682524,,vic:rail:ECM,1,Level 0,3
12209,Canterbury Station,-37.82471032,145.0806617,,vic:rail:CBY,1,Level 0,3
12210,Canterbury Station,-37.8247495,145.0808538,,vic:rail:CBY,1,Level 0,1
12211,Canterbury Station,-37.82469564,145.0808666,,vic:rail:CBY,1,Level 0,2
12212,Chatham Station,-37.82426367,145.0886602,,vic:rail:CHM,1,Level 0,1
12213,Chatham Station,-37.82421918,145.0886955,,vic:rail:CHM,1,Level 0,2
12214,Chatham Station,-37.82425874,145.089467,,vic:rail:CHM,1,Level 0,3
12221,Box Hill Station,-37.81934528,145.1218348,,vic:rail:BOX,1,Level 0,2
12222,Box Hill Station,-37.81930042,145.1218473,,vic:rail:BOX,1,Level 0,3
12223,Box Hill Station,-37.81918313,145.1218389,,vic:rail:BOX,1,Level 0,4
12224,Laburnum Station,-37.82062888,145.1408201,,vic:rail:LAB,1,Level 0,2
12225,Laburnum Station,-37.82074743,145.140908,,vic:rail:LAB,1,Level 0,1
12226,Blackburn Station,-37.82019776,145.1500672,,vic:rail:BBN,1,Level 0,1
12227,Blackburn Station,-37.82014371,145.1500685,,vic:rail:BBN,1,Level 0,2
12228,Blackburn Station,-37.8200439,145.1500256,,vic:rail:BBN,1,Level 0,3
12229,Nunawading Station,-37.82052723,145.1746437,,vic:rail:NWG,1,Level 0,2
12230,Nunawading Station,-37.8206714,145.1740607,,vic:rail:NWG,1,Level 0,1
12231,Mitcham Station,-37.81805724,145.1927108,,vic:rail:MCH,1,Level 0,2
12232,Mitcham Station,-37.81815686,145.1927424,,vic:rail:MCH,1,Level 0,1
12233,Heatherdale Station,-37.81873341,145.2145861,,vic:rail:HTD,1,Level 0,2
12234,Heatherdale Station,-37.8188325,145.2145837,,vic:rail:HTD,1,Level 0,1
12235,Ringwood Station,-37.81568389,145.22928,,vic:rail:RWD,1,Level 0,3
12236,Ringwood Station,-37.8159431,145.2291375,,vic:rail:RWD,1,Level 0,1
12237,Ringwood Station,-37.81592405,145.2290698,,vic:rail:RWD,1,Level 0,2
12238,Auburn Station,-37.82255502,145.0460554,,vic:rail:AUB,1,Level 0,1
12239,Auburn Station,-37.82249272,145.0461025,,vic:rail:AUB,1,Level 0,2
12240,Auburn Station,-37.82237411,145.0460147,,vic:rail:AUB,1,Level 0,3
12241,Glenferrie Station,-37.82158336,145.0364017,,vic:rail:GFE,1,Level 1,1
12242,Glenferrie Station,-37.82147545,145.0364159,,vic:rail:GFE,1,Level 1,2
12243,Glenferrie Station,-37.82141202,145.0363948,,vic:rail:GFE,1,Level 1,3
12244,Hawthorn Station,-37.82207113,145.0230057,,vic:rail:HAW,1,Level 0,1
12245,Hawthorn Station,-37.82196208,145.0229518,,vic:rail:HAW,1,Level 0,2
12246,Hawthorn Station,-37.82189883,145.0229422,,vic:rail:HAW,1,Level 0,3
12247,Burnley Station,-37.82768805,145.007654,,vic:rail:BLY,1,Level 0,1
12248,Burnley Station,-37.82761657,145.00769,,vic:rail:BLY,1,Level 0,2
12249,Burnley Station,-37.82752649,145.0076924,,vic:rail:BLY,1,Level 0,3
12250,Burnley Station,-37.82748126,145.0076823,,vic:rail:BLY,1,Level 0,4
12251,East Richmond Station,-37.82651183,144.9967559,,vic:rail:ERM,1,Level 0,1
12252,East Richmond Station,-37.82633303,144.9968403,,vic:rail:ERM,1,Level 0,2
12253,Richmond Station,-37.8240664,144.9891647,,vic:rail:RMD,1,Level 0,1
12254,Richmond Station,-37.82403938,144.9891654,,vic:rail:RMD,1,Level 0,2
12255,Richmond Station,-37.82395008,144.9892133,,vic:rail:RMD,1,Level 0,3
12256,Richmond Station,-37.82392305,144.989214,,vic:rail:RMD,1,Level 0,4
12257,Richmond Station,-37.82383356,144.9892506,,vic:rail:RMD,1,Level 0,5
12258,Richmond Station,-37.82380712,144.9892854,,vic:rail:RMD,1,Level 0,6
12259,Richmond Station,-37.82371743,144.9893105,,vic:rail:RMD,1,Level 0,7
12260,Richmond Station,-37.8236906,144.9893226,,vic:rail:RMD,1,Level 0,8
12261,Richmond Station,-37.82360091,144.9893478,,vic:rail:RMD,1,Level 0,9
12262,Richmond Station,-37.82358348,144.9893823,,vic:rail:RMD,1,Level 0,10
12263,Heyington Station,-37.83464428,145.0225679,,vic:rail:HEY,2,Level 0,1
12264,Heyington Station,-37.8346203,145.0227503,,vic:rail:HEY,2,Level 0,2
12265,Kooyong Station,-37.83997379,145.0335391,,vic:rail:KYG,1,Level 0,1
12266,Kooyong Station,-37.83983621,145.033395,,vic:rail:KYG,1,Level 0,2
12267,Tooronga Station,-37.84913467,145.0413989,,vic:rail:TGA,1,Level 0,1
12268,Tooronga Station,-37.84905492,145.0414806,,vic:rail:TGA,1,Level 0,2
12269,Gardiner Station,-37.8528872,145.0508467,,vic:rail:GAR,1,Level 0,1
13713,Sandown Park Station,-37.95647719,145.1628038,,vic:rail:SNP,1,Level 0,2
13714,Springvale Station,-37.94927189,145.1532871,,vic:rail:SPG,1,Level 0,1
13715,Springvale Station,-37.94922881,145.1534133,,vic:rail:SPG,1,Level 0,2
13716,Westall Station,-37.93804784,145.1381497,,vic:rail:WTL,1,Level 0,1
13717,Westall Station,-37.93797703,145.1382311,,vic:rail:WTL,1,Level 0,2
13718,Clayton Station,-37.92489719,145.1209953,,vic:rail:CLA,1,Level 0,1
13719,Clayton Station,-37.92485269,145.1210306,,vic:rail:CLA,1,Level 0,2
13720,Huntingdale Station,-37.91107194,145.102397,,vic:rail:HUN,1,Level 0,1
13721,Huntingdale Station,-37.91102782,145.102455,,vic:rail:HUN,1,Level 0,2
13722,Oakleigh Station,-37.90024252,145.0880951,,vic:rail:OAK,1,Level 1,1
13723,Oakleigh Station,-37.900301,145.0883666,,vic:rail:OAK,1,Level 1,2
13725,Hughesdale Station,-37.89402172,145.0757697,,vic:rail:HUG,1,Level 0,1
13726,Hughesdale Station,-37.89396786,145.0757825,,vic:rail:HUG,1,Level 0,2
13727,Murrumbeena Station,-37.89029026,145.0674862,,vic:rail:MRB,1,Level 0,1
13728,Murrumbeena Station,-37.8902456,145.0675101,,vic:rail:MRB,1,Level 0,2
13729,Carnegie Station,-37.886334,145.0587205,,vic:rail:CNE,1,Level 0,1
13730,Carnegie Station,-37.88628952,145.0587557,,vic:rail:CNE,1,Level 0,2
13731,Werribee Station,-37.8994996,144.6608867,,vic:rail:WER,1,Level 0,1
13732,Werribee Station,-37.89955386,144.6608964,,vic:rail:WER,1,Level 0,2
13733,Werribee Station,-37.89986024,144.6604432,,vic:rail:WER,1,Level 0,3
13734,Hoppers Crossing Station,-37.88301076,144.7016681,,vic:rail:HCG,1,Level 0,1
13735,Hoppers Crossing Station,-37.88305624,144.7016894,,vic:rail:HCG,1,Level 0,2
13736,Laverton Station,-37.86354523,144.7728485,,vic:rail:LAV,1,Level 0,1
13737,Laverton Station,-37.86366146,144.7727995,,vic:rail:LAV,1,Level 0,2
13738,Aircraft Station,-37.86670408,144.7602836,,vic:rail:ACF,1,Level 0,1
13739,Aircraft Station,-37.86674932,144.7602936,,vic:rail:ACF,1,Level 0,2
13740,Westona Station,-37.86521907,144.8140603,,vic:rail:WTO,1,Level 0,1
13741,Westona Station,-37.86517404,144.8140616,,vic:rail:WTO,1,Level 0,2
13742,Altona Station,-37.86715283,144.82944,,vic:rail:ALT,1,Level 0,1
13743,Seaholme Station,-37.86782554,144.8410264,,vic:rail:SHE,1,Level 0,1
13744,Westgarth Station,-37.78057836,144.9993933,,vic:rail:WTG,1,Level 0,1
13745,Westgarth Station,-37.78052277,144.999304,,vic:rail:WTG,1,Level 0,2
13746,Dennis Station,-37.77924153,145.0082515,,vic:rail:DEN,1,Level 0,1
13747,Dennis Station,-37.77914244,145.0082542,,vic:rail:DEN,1,Level 0,2
13748,Fairfield Station,-37.77923565,145.0169831,,vic:rail:FFD,1,Level 0,1
13749,Fairfield Station,-37.77912794,145.0170087,,vic:rail:FFD,1,Level 0,2
13750,Alphington Station,-37.77844825,145.0312876,,vic:rail:ALP,1,Level 0,1
13751,Alphington Station,-37.77835741,145.0312445,,vic:rail:ALP,1,Level 0,2
13752,Darebin Station,-37.77491182,145.0386249,,vic:rail:DBN,1,Level 0,1
13753,Darebin Station,-37.77484687,145.0385131,,vic:rail:DBN,1,Level 0,2
13754,Ivanhoe Station,-37.76895098,145.0454351,,vic:rail:IVA,1,Level 0,1
13755,Ivanhoe Station,-37.76884251,145.0454153,,vic:rail:IVA,1,Level 0,2
13756,Eaglemont Station,-37.76372873,145.0538822,,vic:rail:EAG,1,Level 0,1
13757,Eaglemont Station,-37.76366417,145.0537931,,vic:rail:EAG,1,Level 0,2
13758,Heidelberg Station,-37.7571296,145.060843,,vic:rail:HDB,1,Level 0,1
13759,Heidelberg Station,-37.75709244,145.0607758,,vic:rail:HDB,1,Level 0,2
13760,Rosanna Station,-37.74315182,145.0663148,,vic:rail:ROS,1,Level 0,1
14232,Highett Station,-37.94800686,145.0416553,,vic:rail:HIG,1,Level 0,2
14233,Moorabbin Station,-37.93468486,145.0366271,,vic:rail:MRN,1,Level 0,1
14234,Moorabbin Station,-37.93457772,145.0366868,,vic:rail:MRN,1,Level 0,2
14235,Moorabbin Station,-37.93454397,145.0368242,,vic:rail:MRN,1,Level 0,3
14236,Patterson Station,-37.92487071,145.0355229,,vic:rail:PAT,1,Level 0,1
14237,Patterson Station,-37.92487147,145.0355684,,vic:rail:PAT,1,Level 0,2
14238,Patterson Station,-37.92490039,145.0356814,,vic:rail:PAT,1,Level 0,3
14239,Bentleigh Station,-37.91709091,145.0369813,,vic:rail:BEN,1,Level 0,1
14240,Bentleigh Station,-37.91710086,145.0370379,,vic:rail:BEN,1,Level 0,2
14241,Bentleigh Station,-37.91710314,145.0371743,,vic:rail:BEN,1,Level 0,3
14242,McKinnon Station,-37.91147568,145.0380064,,vic:rail:MCK,1,Level 0,1
14243,McKinnon Station,-37.91147644,145.0380518,,vic:rail:MCK,1,Level 0,2
14244,McKinnon Station,-37.91145169,145.038189,,vic:rail:MCK,1,Level 0,3
14245,Ormond Station,-37.90418992,145.0393714,,vic:rail:OMD,1,Level 0,1
14246,Ormond Station,-37.90419086,145.0394282,,vic:rail:OMD,1,Level 0,2
14247,Ormond Station,-37.90420196,145.039553,,vic:rail:OMD,1,Level 0,3
14248,Glen Huntly Station,-37.89018352,145.041949,,vic:rail:GHY,1,Level 0,1
14249,Glen Huntly Station,-37.89019479,145.0420852,,vic:rail:GHY,1,Level 0,2
14250,Glen Huntly Station,-37.88940627,145.0423562,,vic:rail:GHY,1,Level 0,3
14251,Caulfield Station,-37.87736201,145.042084,,vic:rail:CFD,1,Level 1,1
14252,Caulfield Station,-37.87735678,145.0423115,,vic:rail:CFD,1,Level 1,2
14253,Caulfield Station,-37.87728586,145.0423816,,vic:rail:CFD,1,Level 1,3
14254,Caulfield Station,-37.8771605,145.0424304,,vic:rail:CFD,1,Level 1,4
14255,Malvern Station,-37.86643326,145.0292778,,vic:rail:MAL,1,Level 0,1
14256,Malvern Station,-37.86636291,145.029382,,vic:rail:MAL,1,Level 0,2
14257,Malvern Station,-37.86633703,145.0294509,,vic:rail:MAL,1,Level 0,3
14258,Malvern Station,-37.86625748,145.0295439,,vic:rail:MAL,1,Level 0,4
14259,Armadale Station,-37.85624829,145.0189787,,vic:rail:ARM,1,Level 0,1
14260,Armadale Station,-37.85620554,145.0191162,,vic:rail:ARM,1,Level 0,2
14263,Toorak Station,-37.85083188,145.0136115,,vic:rail:TOR,1,Level 0,1
14264,Toorak Station,-37.85073394,145.0136824,,vic:rail:TOR,1,Level 0,2
14267,Hawksburn Station,-37.84472941,145.0018088,,vic:rail:HKN,1,Level 0,1
14268,Hawksburn Station,-37.84463109,145.0018569,,vic:rail:HKN,1,Level 0,2
14271,Sandringham Station,-37.95017551,145.0044745,,vic:rail:SHM,1,Level 0,1
14272,Hampton Station,-37.93819338,145.0014875,,vic:rail:HAM,1,Level 0,1
14273,Hampton Station,-37.93812306,145.0015918,,vic:rail:HAM,1,Level 0,2
14275,Brighton Beach Station,-37.92635018,144.9892141,,vic:rail:BBH,1,Level 0,2
14276,Brighton Beach Station,-37.92645179,144.9893592,,vic:rail:BBH,1,Level 0,3
14277,Middle Brighton Station,-37.91475309,144.9966621,,vic:rail:MBN,1,Level 0,1
14278,Middle Brighton Station,-37.91480907,144.9967743,,vic:rail:MBN,1,Level 0,2
14279,North Brighton Station,-37.90459859,145.0025901,,vic:rail:NBN,1,Level 0,1
14280,North Brighton Station,-37.90470861,145.0027009,,vic:rail:NBN,1,Level 0,2
14281,Gardenvale Station,-37.89662205,145.0041136,,vic:rail:GVE,1,Level 0,1
14282,Gardenvale Station,-37.89665119,145.0042379,,vic:rail:GVE,1,Level 0,2
14283,Elsternwick Station,-37.88524454,145.0011802,,vic:rail:ELS,1,Level 0,1
14284,Elsternwick Station,-37.8852271,145.0012148,,vic:rail:ELS,1,Level 0,2
14285,Ripponlea Station,-37.87580521,144.9951142,,vic:rail:RIP,1,Level 0,1
14286,Ripponlea Station,-37.87579814,144.9952281,,vic:rail:RIP,1,Level 0,2
14287,Balaclava Station,-37.86965064,144.9935532,,vic:rail:BCV,1,Level 0,2
14288,Balaclava Station,-37.86960366,144.9934408,,vic:rail:BCV,1,Level 0,1
14289,Windsor Station,-37.85605095,144.9919102,,vic:rail:WIN,1,Level 0,1
14290,Windsor Station,-37.85579641,144.9917807,,vic:rail:WIN,1,Level 0,2
14291,Prahran Station,-37.84970629,144.9897753,,vic:rail:PRA,1,Level 0,1
14292,Prahran Station,-37.84970842,144.9899002,,vic:rail:PRA,1,Level 0,2
14293,South Yarra Station,-37.837915,144.9921863,,vic:rail:SYR,1,Level 0,1
14294,South Yarra Station,-37.83806086,144.9922846,,vic:rail:SYR,1,Level 0,2
14295,South Yarra Station,-37.8380166,144.9923312,,vic:rail:SYR,1,Level 0,3
14296,South Yarra Station,-37.8379917,144.9924569,,vic:rail:SYR,1,Level 0,4
14297,South Yarra Station,-37.83793843,144.9925038,,vic:rail:SYR,1,Level 0,5
14298,South Yarra Station,-37.83796759,144.992628,,vic:rail:SYR,1,Level 0,6
14299,Upfield Station,-37.66558921,144.9466287,,vic:rail:UFD,1,Level 0,1
14300,Gowrie Station,-37.70107512,144.9589088,,vic:rail:GOW,1,Level 0,1
14301,Gowrie Station,-37.70106513,144.9588524,,vic:rail:GOW,1,Level 0,2
14302,Fawkner Station,-37.71512768,144.9606446,,vic:rail:FAK,1,Level 0,1
14303,Fawkner Station,-37.71508929,144.9605095,,vic:rail:FAK,1,Level 0,2
14304,Merlynston Station,-37.72148512,144.9614005,,vic:rail:MYN,1,Level 0,1
14305,Merlynston Station,-37.72149334,144.9613549,,vic:rail:MYN,1,Level 0,2
14306,Batman Station,-37.73289075,144.9627671,,vic:rail:BAT,1,Level 0,1
14307,Batman Station,-37.73289897,144.9627215,,vic:rail:BAT,1,Level 0,2
14308,Coburg Station,-37.74236382,144.9633812,,vic:rail:COB,1,Level 0,1
14309,Coburg Station,-37.74234286,144.9632116,,vic:rail:COB,1,Level 0,2
14310,Moreland Station,-37.75409928,144.9619358,,vic:rail:MLD,1,Level 0,1
14311,Moreland Station,-37.75408733,144.9617658,,vic:rail:MLD,1,Level 0,2
14312,Anstey Station,-37.76131507,144.9607388,,vic:rail:ASY,1,Level 0,1
14313,Anstey Station,-37.76128589,144.9606147,,vic:rail:ASY,1,Level 0,2
14314,Brunswick Station,-37.76774875,144.9596539,,vic:rail:BWK,1,Level 0,1
14315,Brunswick Station,-37.76768373,144.9595421,,vic:rail:BWK,1,Level 0,2
14316,Jewell Station,-37.77497038,144.9587968,,vic:rail:JWL,1,Level 0,1
14317,Jewell Station,-37.77489616,144.958674,,vic:rail:JWL,1,Level 0,2
14318,Royal Park Station,-37.78123856,144.9523341,,vic:rail:RPK,1,Level 0,1
14319,Royal Park Station,-37.78113908,144.9523141,,vic:rail:RPK,1,Level 0,2
14320,Flemington Bridge Station,-37.78827327,144.9392174,,vic:rail:FBD,1,Level 0,1
14321,Flemington Bridge Station,-37.78812114,144.9392784,,vic:rail:FBD,1,Level 0,2
14322,Macaulay Station,-37.79432177,144.9362216,,vic:rail:MAC,1,Level 0,1
14323,Macaulay Station,-37.79427455,144.936098,,vic:rail:MAC,1,Level 0,2
14324,North Melbourne Station,-37.80706074,144.9421935,,vic:rail:NME,1,Level 0,1
14325,North Melbourne Station,-37.80716764,144.9421224,,vic:rail:NME,1,Level 0,2
14326,North Melbourne Station,-37.80716665,144.9420657,,vic:rail:NME,1,Level 0,3
14327,North Melbourne Station,-37.8072191,144.9419733,,vic:rail:NME,1,Level 0,4
14328,North Melbourne Station,-37.80740084,144.9420592,,vic:rail:NME,1,Level 0,5
14329,North Melbourne Station,-37.80737985,144.9418894,,vic:rail:NME,1,Level 0,6
14330,Clifton Hill Station,-37.78847865,144.995501,,vic:rail:CHL,1,Level 0,1
14331,Clifton Hill Station,-37.78868312,144.9953365,,vic:rail:CHL,1,Level 0,2
14332,Victoria Park Station,-37.79917603,144.9944623,,vic:rail:VPK,1,Level 1,1
14333,Victoria Park Station,-37.79911143,144.9943732,,vic:rail:VPK,1,Level 1,2
14334,Collingwood Station,-37.80439004,144.9937079,,vic:rail:CWD,1,Level 2,2
14335,Collingwood Station,-37.80445464,144.993797,,vic:rail:CWD,1,Level 2,1
14336,North Richmond Station,-37.8104894,144.9925546,,vic:rail:NRM,1,Level 1,1
14337,North Richmond Station,-37.81046064,144.9924531,,vic:rail:NRM,1,Level 1,2
14338,West Richmond Station,-37.81498577,144.9914672,,vic:rail:WRM,1,Level 0,1
14339,West Richmond Station,-37.8148679,144.991425,,vic:rail:WRM,1,Level 0,2
14340,Jolimont-MCG Station,-37.81655366,144.9840749,,vic:rail:JLI,1,Level -1,1
14341,Jolimont-MCG Station,-37.81648198,144.9840996,,vic:rail:JLI,1,Level -1,2
15323,Rosanna Station,-37.74317661,145.0661779,,vic:rail:ROS,1,Level 0,2
15324,Macleod Station,-37.72652298,145.0689599,,vic:rail:MCD,1,Level 0,3
15325,Macleod Station,-37.72644284,145.0690187,,vic:rail:MCD,1,Level 0,2
15326,Macleod Station,-37.72640904,145.0691557,,vic:rail:MCD,1,Level 0,1
15327,Watsonia Station,-37.71102048,145.0837577,,vic:rail:WAT,1,Level -1,1
15328,Watsonia Station,-37.71099198,145.0836677,,vic:rail:WAT,1,Level -1,2
15329,Greensborough Station,-37.70398793,145.1081104,,vic:rail:GRN,1,Level -1,1
15330,Greensborough Station,-37.70395299,145.1081794,,vic:rail:GRN,1,Level -1,2
15331,Montmorency Station,-37.71529317,145.121323,,vic:rail:MMY,1,Level 0,1
15332,Eltham Station,-37.71340714,145.1479277,,vic:rail:ELT,1,Level 0,1
15333,Eltham Station,-37.71336031,145.1478154,,vic:rail:ELT,1,Level 0,2
15334,Diamond Creek Station,-37.67336015,145.158482,,vic:rail:DCK,1,Level 1,1
15335,Diamond Creek Station,-37.6735366,145.1582395,,vic:rail:DCK,1,Level 1,2
15336,Wattle Glen Station,-37.66400518,145.181693,,vic:rail:WTT,1,Level 0,1
15337,Hurstbridge Station,-37.63957765,145.1919672,,vic:rail:HBE,1,Level 0,1
15338,Williamstown Station,-37.86763077,144.9050426,,vic:rail:WIL,1,Level 0,1
15339,Williamstown Beach Station,-37.8640257,144.8944142,,vic:rail:WBH,1,Level 0,1
15340,Williamstown Beach Station,-37.86391803,144.89444,,vic:rail:WBH,1,Level 0,2
15341,North Williamstown Station,-37.85712326,144.888905,,vic:rail:NWN,1,Level 0,1
15342,North Williamstown Station,-37.85708047,144.8890312,,vic:rail:NWN,1,Level 0,2
15343,Newport Station,-37.84284244,144.8835282,,vic:rail:NPT,1,Level 0,1
15344,Newport Station,-37.84278103,144.8836208,,vic:rail:NPT,1,Level 0,2
15345,Spotswood Station,-37.83069149,144.8858524,,vic:rail:SPT,1,Level 0,1
15346,Spotswood Station,-37.83072055,144.8859652,,vic:rail:SPT,1,Level 0,2
15347,Yarraville Station,-37.81572394,144.8899146,,vic:rail:YVE,1,Level 0,1
15348,Yarraville Station,-37.81574439,144.8900503,,vic:rail:YVE,1,Level 0,2
15349,Seddon Station,-37.80899491,144.8956037,,vic:rail:SEN,1,Level 0,1
15350,Seddon Station,-37.80900656,144.895751,,vic:rail:SEN,1,Level 0,2
15352,Sunbury Station,-37.57941295,144.72766,,vic:rail:SUY,1,Level 0,2
15354,Diggers Rest Station,-37.62771153,144.7199805,,vic:rail:DRT,1,Level 0,2
15355,Watergardens Station,-37.70087375,144.7740406,,vic:rail:WGS,1,Level 0,1
15356,Watergardens Station,-37.70100799,144.7739913,,vic:rail:WGS,1,Level 0,2
15357,Watergardens Station,-37.70101593,144.7739343,,vic:rail:WGS,1,Level 0,3
15358,Keilor Plains Station,-37.72961556,144.7938869,,vic:rail:KPL,1,Level 0,1
15359,Keilor Plains Station,-37.72963124,144.7937617,,vic:rail:KPL,1,Level 0,2
15360,St Albans Station,-37.74491991,144.7998104,,vic:rail:SAB,1,Level 0,2
15361,St Albans Station,-37.74485877,144.7999143,,vic:rail:SAB,1,Level 0,1
15362,Ginifer Station,-37.75934606,144.8108586,,vic:rail:GIN,1,Level 0,1
15363,Ginifer Station,-37.75940721,144.8107546,,vic:rail:GIN,1,Level 0,2
15364,Albion Station,-37.77746178,144.824607,,vic:rail:ALB,1,Level 0,1
15365,Albion Station,-37.77753383,144.8246049,,vic:rail:ALB,1,Level 0,2
15366,Epping Station,-37.6522021,145.0314528,,vic:rail:EPP,1,Level -1,1
15367,Epping Station,-37.65214786,145.0314428,,vic:rail:EPP,1,Level -1,2
15368,Lalor Station,-37.66587124,145.01734,,vic:rail:LAL,1,Level 0,1
15369,Lalor Station,-37.66585113,145.0172158,,vic:rail:LAL,1,Level 0,2
15370,Thomastown Station,-37.68032122,145.0143474,,vic:rail:TSN,1,Level 0,1
15371,Keon Park Station,-37.69575118,145.0117582,,vic:rail:KPK,1,Level 2,1
15372,Keon Park Station,-37.69562373,145.0116822,,vic:rail:KPK,1,Level 2,2
15373,Ruthven Station,-37.70791498,145.0094821,,vic:rail:RUT,1,Level 1,1
15374,Ruthven Station,-37.70790501,145.0094257,,vic:rail:RUT,1,Level 1,2
15375,Reservoir Station,-37.71670648,145.0071027,,vic:rail:RES,1,Level 1,1
15376,Reservoir Station,-37.71666911,145.0070243,,vic:rail:RES,1,Level 1,2
15377,Regent Station,-37.72848442,145.0028044,,vic:rail:REG,1,Level -1,1
15378,Regent Station,-37.72842883,145.0027151,,vic:rail:REG,1,Level 0,2
15379,Preston Station,-37.73886456,145.000585,,vic:rail:PRE,1,Level 1,1
15380,Preston Station,-37.73886263,145.0004715,,vic:rail:PRE,1,Level 1,2
15381,Bell Station,-37.74603438,145.0003693,,vic:rail:BEL,1,Level 1,1
15382,Bell Station,-37.74585957,145.0001584,,vic:rail:BEL,1,Level 1,2
15383,Thornbury Station,-37.75516046,144.9986026,,vic:rail:TBY,1,Level 0,1
15384,Thornbury Station,-37.75495213,144.9985402,,vic:rail:TBY,1,Level 0,2
15385,Croxton Station,-37.7641288,144.9971008,,vic:rail:CXT,1,Level 1,1
15386,Croxton Station,-37.76413588,144.9969871,,vic:rail:CXT,1,Level 1,2
15387,Northcote Station,-37.76990179,144.9952989,,vic:rail:NCE,1,Level 1,1
15388,Northcote Station,-37.76982857,144.9952328,,vic:rail:NCE,1,Level 1,2
15389,Merri Station,-37.77793772,144.9930268,,vic:rail:MER,1,Level 1,1
15390,Merri Station,-37.77771117,144.9929534,,vic:rail:MER,1,Level 0,2
15391,Rushall Station,-37.78317246,144.992431,,vic:rail:RUS,1,Level 1,1
15392,Rushall Station,-37.78288355,144.9918711,,vic:rail:RUS,1,Level 1,2
15512,Tottenham Station,-37.79928801,144.8635004,,vic:rail:TOT,1,Level 0,1
15513,Tottenham Station,-37.79933243,144.863465,,vic:rail:TOT,1,Level 0,2
15514,West Footscray Station,-37.80163482,144.8836716,,vic:rail:WFY,1,Level 0,1
15516,Middle Footscray Station,-37.80246975,144.8910301,,vic:rail:MFY,1,Level 0,1
15517,Middle Footscray Station,-37.80253361,144.8910738,,vic:rail:MFY,1,Level 0,2
15518,Footscray Station,-37.80122914,144.9022979,,vic:rail:FSY,1,Level 0,1
15519,Footscray Station,-37.80123379,144.9025589,,vic:rail:FSY,1,Level 0,2
15522,South Kensington Station,-37.79946443,144.9247667,,vic:rail:SKN,1,Level 0,1
15523,South Kensington Station,-37.79957532,144.9249226,,vic:rail:SKN,1,Level 0,2
15524,Flemington Racecourse Station,-37.78772649,144.9071878,,vic:rail:RCE,1,Level 0,1
15527,Craigieburn Station,-37.60229293,144.9432279,,vic:rail:CGB,1,Level 1,1
15528,Craigieburn Station,-37.6022373,144.9431388,,vic:rail:CGB,1,Level 1,2
15529,Broadmeadows Station,-37.68299742,144.9197394,,vic:rail:BMS,1,Level 0,1
15530,Broadmeadows Station,-37.6827368,144.9197807,,vic:rail:BMS,1,Level 0,2
15531,Jacana Station,-37.69533775,144.9158334,,vic:rail:JAC,1,Level 0,1
15532,Jacana Station,-37.69532795,144.9157883,,vic:rail:JAC,1,Level 0,2
15533,Glenroy Station,-37.70490324,144.9175844,,vic:rail:GRY,1,Level 0,1
15534,Glenroy Station,-37.70494567,144.9174358,,vic:rail:GRY,1,Level 0,2
15535,Oak Park Station,-37.71809525,144.9215941,,vic:rail:OKP,1,Level 0,1
15536,Oak Park Station,-37.71812928,144.9214797,,vic:rail:OKP,1,Level 0,2
15537,Pascoe Vale Station,-37.73124475,144.9283182,,vic:rail:PVL,1,Level 0,1
15538,Pascoe Vale Station,-37.73128779,144.9282035,,vic:rail:PVL,1,Level 0,2
15539,Strathmore Station,-37.74406093,144.92686,,vic:rail:SME,1,Level 0,1
15540,Strathmore Station,-37.74397847,144.9267829,,vic:rail:SME,1,Level 0,2
15541,Glenbervie Station,-37.74736057,144.9207983,,vic:rail:GBV,1,Level 0,1
15542,Glenbervie Station,-37.74719924,144.9208482,,vic:rail:GBV,1,Level 0,2
15544,Essendon Station,-37.75611017,144.9161607,,vic:rail:ESD,1,Level 0,2
15545,Essendon Station,-37.75609075,144.9160818,,vic:rail:ESD,1,Level 0,3
15546,Moonee Ponds Station,-37.76568985,144.9192293,,vic:rail:MPD,1,Level 0,1
15547,Moonee Ponds Station,-37.76576911,144.9191249,,vic:rail:MPD,1,Level 0,2
15548,Ascot Vale Station,-37.77533451,144.9218994,,vic:rail:ASV,1,Level 0,1
15549,Ascot Vale Station,-37.77541397,144.9218064,,vic:rail:ASV,1,Level 0,2
15550,Newmarket Station,-37.78740133,144.9290673,,vic:rail:NKT,1,Level 0,1
15551,Newmarket Station,-37.78744437,144.9289525,,vic:rail:NKT,1,Level 0,2
15552,Kensington Station,-37.79373618,144.9305825,,vic:rail:KEN,1,Level 0,1
15553,Kensington Station,-37.79371577,144.9304467,,vic:rail:KEN,1,Level 0,2
2155,Morradoo Station,-38.35386024,145.1894809,,vic:rail:MRO,1,Level 0,1
22187,Southern Cross Station,-37.81765471,144.9517939,,vic:rail:SSS,1,Level 0,8
22188,Southern Cross Station,-37.81825315,144.9520046,,vic:rail:SSS,1,Level 0,9
22189,Southern Cross Station,-37.81853495,144.9521444,,vic:rail:SSS,1,Level 0,10
22190,Southern Cross Station,-37.818531,144.9519174,,vic:rail:SSS,1,Level 0,11
22191,Southern Cross Station,-37.81854783,144.9518487,,vic:rail:SSS,1,Level 0,12
22192,Southern Cross Station,-37.81866354,144.951766,,vic:rail:SSS,1,Level 0,13
22193,Southern Cross Station,-37.81868957,144.9517085,,vic:rail:SSS,1,Level 0,14
26100,Aircraft Rail Replacement Bus Stop,-37.86713926,144.7608956,,vic:rail:ACF,1,Level 0,Replacement bus
26102,Albion Rail Replacement Bus Stop,-37.77703428,144.8258571,,vic:rail:ALB,1,Level 0,Replacement bus
26103,Alphington Rail Replacement Bus Stop,-37.7780939,145.0311153,,vic:rail:ALP,1,Level 0,Replacement bus
26104,Altona Rail Replacement Bus Stop,-37.86692411,144.8307198,,vic:rail:ALT,1,Level 0,Replacement bus
26105,Anstey Rail Replacement Bus Stop,-37.76069268,144.9633099,,vic:rail:ASY,1,Level 0,Replacement bus
26106,Armadale Rail Replacement Bus Stop,-37.85725345,145.0203384,,vic:rail:ARM,1,Level 0,Replacement bus
26107,Ascot Vale Rail Replacement Bus Stop,-37.77657611,144.9233179,,vic:rail:ASV,1,Level 0,Replacement bus
26109,Aspendale Rail Replacement Bus Stop,-38.02680418,145.1020578,,vic:rail:ASP,1,Level 0,Replacement bus
26110,Auburn Rail Replacement Bus Stop,-37.823858,145.0463732,,vic:rail:AUB,1,Level 0,Replacement bus
26111,Balaclava Rail Replacement Bus Stop,-37.86879066,144.9933264,,vic:rail:BCV,1,Level 0,Replacement bus
26112,Batman Rail Replacement Bus Stop,-37.73361883,144.9652662,,vic:rail:BAT,1,Level 0,Replacement bus
26115,Beaconsfield Rail Replacement Bus Stop,-38.05068421,145.3665101,,vic:rail:BFD,1,Level 0,Replacement bus
26117,Bell Rail Replacement Bus Stop,-37.7455623,145.0028221,,vic:rail:BEL,1,Level 0,Replacement bus
26118,Bentleigh Rail Replacement Bus Stop,-37.91828296,145.0371316,,vic:rail:BEN,1,Level 0,Replacement bus
26119,Berwick Rail Replacement Bus Stop,-38.03873426,145.3446015,,vic:rail:BEW,1,Level 0,Replacement bus
26122,Bonbeach Rail Replacement Bus Stop,-38.06706644,145.1204526,,vic:rail:BON,1,Level 0,Replacement bus
26125,Brighton Beach Rail Replacement Bus Stop,-37.92776985,144.990552,,vic:rail:BBH,1,Level 0,Replacement bus
26126,Broadmeadows Rail Replacement Bus Stop,-37.68341377,144.9188206,,vic:rail:BMS,1,Level 0,Replacement bus
26127,Brunswick Rail Replacement Bus Stop,-37.76695524,144.9622299,,vic:rail:BWK,1,Level 0,Replacement bus
26128,Burnley Rail Replacement Bus Stop,-37.82832757,145.0071028,,vic:rail:BLY,1,Level 0,Replacement bus
26130,Camberwell Rail Replacement Bus Stop,-37.82633726,145.0584192,,vic:rail:CAM,1,Level 0,Replacement bus
26132,Cardinia Road Rail Replacement Bus Stop,-38.07217075,145.4382511,,vic:rail:CDA,1,Level 0,Replacement bus
26133,Carnegie Rail Replacement Bus Stop,-37.88593766,145.0576393,,vic:rail:CNE,1,Level 0,Replacement bus
26134,Carrum Rail Replacement Bus Stop,-38.07588289,145.1245932,,vic:rail:CAR,1,Level 0,Replacement bus
26135,Caulfield Rail Replacement Bus Stop,-37.87758588,145.0419984,,vic:rail:CFD,1,Level 0,Replacement bus
26137,Chelsea Rail Replacement Bus Stop,-38.0521846,145.1162862,,vic:rail:CSA,1,Level 0,Replacement bus
26138,Cheltenham Rail Replacement Bus Stop,-37.96800221,145.0551369,,vic:rail:CTM,1,Level 0,Replacement bus
26139,Clayton Rail Replacement Bus Stop,-37.92479163,145.1211573,,vic:rail:CLA,1,Level 0,Replacement bus
26140,Clifton Hill Rail Replacement Bus Stop,-37.78899337,144.9950329,,vic:rail:CHL,1,Level 0,Replacement bus
26141,Coburg Rail Replacement Bus Stop,-37.74311853,144.9663793,,vic:rail:COB,1,Level 0,Replacement bus
26142,Collingwood Rail Replacement Bus Stop,-37.80457496,144.9923967,,vic:rail:CWD,1,Level 0,Replacement bus
26143,Coolaroo Rail Replacement Bus Stop,-37.66066893,144.925022,,vic:rail:CLO,1,Level 0,Replacement bus
26144,Craigieburn Rail Replacement Bus Stop,-37.60210856,144.9424741,,vic:rail:CGB,1,Level 0,Replacement bus
26145,Cranbourne Rail Replacement Bus Stop,-38.10035676,145.2811728,,vic:rail:CBE,1,Level 0,Replacement bus
26147,Croxton Rail Replacement Bus Stop,-37.76550359,144.9995158,,vic:rail:CXT,1,Level 0,Replacement bus
26149,Dandenong Rail Replacement Bus Stop,-37.99064754,145.2099708,,vic:rail:DNG,1,Level 0,Replacement bus
26150,Darebin Rail Replacement Bus Stop,-37.77471918,145.0395043,,vic:rail:DBN,1,Level 0,Replacement bus
26151,Darling Rail Replacement Bus Stop,-37.86888753,145.0603835,,vic:rail:DLG,1,Level 0,Replacement bus
26152,Dennis Rail Replacement Bus Stop,-37.77976056,145.0101678,,vic:rail:DEN,1,Level 0,Replacement bus
26153,Diamond Creek Rail Replacement Bus Stop,-37.67434902,145.159478,,vic:rail:DCK,1,Level 0,Replacement bus
26154,Diggers Rest Rail Replacement Bus Stop,-37.62765502,144.7207867,,vic:rail:DRT,1,Level 0,Replacement bus
26155,Eaglemont Rail Replacement Bus Stop,-37.76368669,145.05352,,vic:rail:EAG,1,Level 0,Replacement bus
26157,East Malvern Rail Replacement Bus Stop,-37.87971565,145.0700025,,vic:rail:EMV,1,Level 0,Replacement bus
26158,East Pakenham Rail Replacement Bus Stop,-38.08467988,145.5097607,,vic:rail:EPH,1,Level 0,Replacement bus
26159,East Richmond Rail Replacement Bus Stop,-37.82576035,144.9981396,,vic:rail:ERM,1,Level 0,Replacement bus
26160,Edithvale Rail Replacement Bus Stop,-38.03770269,145.1084193,,vic:rail:EDI,1,Level 0,Replacement bus
26161,Elsternwick Rail Replacement Bus Stop,-37.88511257,145.0003083,,vic:rail:ELS,1,Level 0,Replacement bus
26162,Eltham Rail Replacement Bus Stop,-37.71319574,145.1482392,,vic:rail:ELT,1,Level 0,Replacement bus
26163,Epping Rail Replacement Bus Stop,-37.65235308,145.03078,,vic:rail:EPP,1,Level 0,Replacement bus
26164,Essendon Rail Replacement Bus Stop,-37.75624591,144.9167017,,vic:rail:ESD,1,Level 0,Replacement bus
26165,Fairfield Rail Replacement Bus Stop,-37.77893989,145.0176154,,vic:rail:FFD,1,Level 0,Replacement bus
26166,Fawkner Rail Replacement Bus Stop,-37.71464386,144.9623708,,vic:rail:FAK,1,Level 0,Replacement bus
26169,Flemington Bridge Rail Replacement Bus Stop,-37.78920481,144.9394073,,vic:rail:FBD,1,Level 0,Replacement bus
26170,Flinders Street Rail Replacement Bus Stop,-37.81798064,144.9659168,,vic:rail:FSS,1,Level 0,Replacement bus
26171,Footscray Rail Replacement Bus Stop,-37.80132924,144.901341,,vic:rail:FSY,1,Level 0,Replacement bus
26173,Gardenvale Rail Replacement Bus Stop,-37.89735205,145.0041166,,vic:rail:GVE,1,Level 0,Replacement bus
26174,Gardiner Rail Replacement Bus Stop,-37.85441857,145.0513519,,vic:rail:GAR,1,Level 0,Replacement bus
26175,Ginifer Rail Replacement Bus Stop,-37.76005122,144.8119502,,vic:rail:GIN,1,Level 0,Replacement bus
26176,Glen Iris Rail Replacement Bus Stop,-37.86043742,145.0572859,,vic:rail:GIR,1,Level 0,Replacement bus
26177,Glen Waverley Rail Replacement Bus Stop,-37.87997153,145.1631374,,vic:rail:GWY,1,Level 0,Replacement bus
26178,Glenbervie Rail Replacement Bus Stop,-37.74804693,144.9203705,,vic:rail:GBV,1,Level 0,Replacement bus
26179,Glenferrie Rail Replacement Bus Stop,-37.82269143,145.0358383,,vic:rail:GFE,1,Level 0,Replacement bus
26180,Glen Huntly Rail Replacement Bus Stop,-37.89052279,145.0450103,,vic:rail:GHY,1,Level 0,Replacement bus
26181,Glenroy Rail Replacement Bus Stop,-37.70435755,144.9157736,,vic:rail:GRY,1,Level 0,Replacement bus
26182,Gowrie Rail Replacement Bus Stop,-37.70052766,144.9600807,,vic:rail:GOW,1,Level 0,Replacement bus
26183,Greensborough Rail Replacement Bus Stop,-37.70335551,145.1068902,,vic:rail:GRN,1,Level 0,Replacement bus
26184,Hallam Rail Replacement Bus Stop,-38.01808761,145.2707141,,vic:rail:HLM,1,Level 0,Replacement bus
26185,Hampton Rail Replacement Bus Stop,-37.93859365,145.002239,,vic:rail:HAM,1,Level 0,Replacement bus
26188,Hawksburn Rail Replacement Bus Stop,-37.84529304,145.0036914,,vic:rail:HKN,1,Level 0,Replacement bus
26189,Hawkstowe Rail Replacement Bus Stop,-37.62340108,145.0968986,,vic:rail:HWS,1,Level 0,Replacement bus
26190,Hawthorn Rail Replacement Bus Stop,-37.8212822,145.0237879,,vic:rail:HAW,1,Level 0,Replacement bus
26193,Heidelberg Rail Replacement Bus Stop,-37.75723032,145.0614873,,vic:rail:HDB,1,Level 0,Replacement bus
26194,Heyington Rail Replacement Bus Stop,-37.83479035,145.0221435,,vic:rail:HEY,1,Level 0,Replacement bus
26195,Highett Rail Replacement Bus Stop,-37.9486705,145.0409207,,vic:rail:HIG,1,Level 0,Replacement bus
26196,Holmesglen Rail Replacement Bus Stop,-37.87496646,145.091557,,vic:rail:HOL,1,Level 0,Replacement bus
26197,Hoppers Crossing Rail Replacement Bus Stop,-37.88314544,144.7007202,,vic:rail:HCG,1,Level 0,Replacement bus
26198,Hughesdale Rail Replacement Bus Stop,-37.89441529,145.076692,,vic:rail:HUG,1,Level 0,Replacement bus
26199,Huntingdale Rail Replacement Bus Stop,-37.91106123,145.1034097,,vic:rail:HUN,1,Level 0,Replacement bus
26200,Hurstbridge Rail Replacement Bus Stop,-37.63952777,145.1922404,,vic:rail:HBE,1,Level 0,Replacement bus
26201,Ivanhoe Rail Replacement Bus Stop,-37.76897684,145.0448214,,vic:rail:IVA,1,Level 0,Replacement bus
26202,Jacana Rail Replacement Bus Stop,-37.694902,144.9161631,,vic:rail:JAC,1,Level 0,Replacement bus
26203,Jewell Rail Replacement Bus Stop,-37.77457458,144.9609195,,vic:rail:JWL,1,Level 0,Replacement bus
26204,Jolimont-MCG Rail Replacement Bus Stop,-37.81625044,144.9832084,,vic:rail:JLI,1,Level 0,Replacement bus
26205,Jordanville Rail Replacement Bus Stop,-37.87419049,145.1127346,,vic:rail:JOR,1,Level 0,Replacement bus
26207,Keilor Plains Rail Replacement Bus Stop,-37.73016763,144.7944946,,vic:rail:KPL,1,Level 0,Replacement bus
26208,Kensington Rail Replacement Bus Stop,-37.79418592,144.9310469,,vic:rail:KEN,1,Level 0,Replacement bus
26209,Keon Park Rail Replacement Bus Stop,-37.69358775,145.0117253,,vic:rail:KPK,1,Level 0,Replacement bus
26210,Kooyong Rail Replacement Bus Stop,-37.84389435,145.0319462,,vic:rail:KYG,1,Level 0,Replacement bus
26212,Lalor Rail Replacement Bus Stop,-37.66515237,145.0169283,,vic:rail:LAL,1,Level 0,Replacement bus
26213,Laverton Rail Replacement Bus Stop,-37.86436303,144.7717781,,vic:rail:LAV,1,Level 0,Replacement bus
26216,Lynbrook Rail Replacement Bus Stop,-38.05866999,145.2507593,,vic:rail:LBK,1,Level 0,Replacement bus
26217,Macaulay Rail Replacement Bus Stop,-37.79509296,144.9365181,,vic:rail:MAC,1,Level 0,Replacement bus
26218,Macleod Rail Replacement Bus Stop,-37.72611771,145.0695264,,vic:rail:MCD,1,Level 0,Replacement bus
26219,Malvern Rail Replacement Bus Stop,-37.8667753,145.0281774,,vic:rail:MAL,1,Level 0,Replacement bus
26220,McKinnon Rail Replacement Bus Stop,-37.91105525,145.0387341,,vic:rail:MCK,1,Level 0,Replacement bus
26222,Mentone Rail Replacement Bus Stop,-37.98158187,145.064365,,vic:rail:MEN,1,Level 0,Replacement bus
26223,Merinda Park Rail Replacement Bus Stop,-38.07958031,145.2643299,,vic:rail:MPK,1,Level 0,Replacement bus
26224,Merlynston Rail Replacement Bus Stop,-37.72201662,144.9634735,,vic:rail:MYN,1,Level 0,Replacement bus
26225,Mernda Rail Replacement Bus Stop,-37.6027459,145.1014237,,vic:rail:MDD,1,Level 0,Replacement bus
26226,Merri Rail Replacement Bus Stop,-37.77755912,144.992492,,vic:rail:MER,1,Level 0,Replacement bus
26227,Middle Brighton Rail Replacement Bus Stop,-37.91569529,144.996955,,vic:rail:MBN,1,Level 0,Replacement bus
26228,Middle Footscray Rail Replacement Bus Stop,-37.80295999,144.891232,,vic:rail:MFY,1,Level 0,Replacement bus
26229,Middle Gorge Rail Replacement Bus Stop,-37.64393552,145.0927252,,vic:rail:MMR,1,Level 0,Replacement bus
26231,Montmorency Rail Replacement Bus Stop,-37.71569587,145.1217099,,vic:rail:MMY,1,Level 0,Replacement bus
26232,Moonee Ponds Rail Replacement Bus Stop,-37.76553993,144.9194151,,vic:rail:MPD,1,Level 0,Replacement bus
26233,Moorabbin Rail Replacement Bus Stop,-37.93526534,145.0368506,,vic:rail:MRN,1,Level 0,Replacement bus
26235,Mordialloc Rail Replacement Bus Stop,-38.00583382,145.0875877,,vic:rail:MOR,1,Level 0,Replacement bus
26236,Moreland Rail Replacement Bus Stop,-37.75528404,144.9642641,,vic:rail:MLD,1,Level 0,Replacement bus
26238,Mount Waverley Rail Replacement Bus Stop,-37.87617271,145.1290784,,vic:rail:MWY,1,Level 0,Replacement bus
26239,Murrumbeena Rail Replacement Bus Stop,-37.88962316,145.0669237,,vic:rail:MRB,1,Level 0,Replacement bus
26240,Narre Warren Rail Replacement Bus Stop,-38.02694229,145.3032147,,vic:rail:NWA,1,Level 0,Replacement bus
26241,Newmarket Rail Replacement Bus Stop,-37.78789698,144.9280428,,vic:rail:NKT,1,Level 0,Replacement bus
26242,Newport Rail Replacement Bus Stop,-37.84249141,144.8825496,,vic:rail:NPT,1,Level 0,Replacement bus
26243,Noble Park Rail Replacement Bus Stop,-37.96632864,145.1762182,,vic:rail:NPK,1,Level 0,Replacement bus
26244,North Brighton Rail Replacement Bus Stop,-37.90566977,145.0014579,,vic:rail:NBN,1,Level 0,Replacement bus
26245,North Melbourne Rail Replacement Bus Stop,-37.80678123,144.9427011,,vic:rail:NME,1,Level 0,Replacement bus
26246,North Richmond Rail Replacement Bus Stop,-37.81041561,144.991398,,vic:rail:NRM,1,Level 0,Replacement bus
26248,Northcote Rail Replacement Bus Stop,-37.7690245,144.9961741,,vic:rail:NCE,1,Level 0,Replacement bus
26250,Oak Park Rail Replacement Bus Stop,-37.7178941,144.919898,,vic:rail:OKP,1,Level 0,Replacement bus
26251,Oakleigh Rail Replacement Bus Stop,-37.90046403,145.087862,,vic:rail:OAK,1,Level 0,Replacement bus
26252,Officer Rail Replacement Bus Stop,-38.06662459,145.4137469,,vic:rail:OFC,1,Level 0,Replacement bus
26253,Ormond Rail Replacement Bus Stop,-37.90402729,145.0398875,,vic:rail:OMD,1,Level 0,Replacement bus
26254,Pakenham Rail Replacement Bus Stop,-38.08006493,145.4850336,,vic:rail:PKM,1,Level 0,Replacement bus
26255,Parkdale Rail Replacement Bus Stop,-37.99318442,145.0767226,,vic:rail:PKD,1,Level 0,Replacement bus
26256,Parliament Rail Replacement Bus Stop,-37.81268753,144.9735705,,vic:rail:PAR,1,Level 0,Replacement bus
26257,Pascoe Vale Rail Replacement Bus Stop,-37.72966526,144.9281806,,vic:rail:PVL,1,Level 0,Replacement bus
26258,Patterson Rail Replacement Bus Stop,-37.92450567,145.0406521,,vic:rail:PAT,1,Level 0,Replacement bus
26259,Prahran Rail Replacement Bus Stop,-37.85138333,144.9892978,,vic:rail:PRA,1,Level 0,Replacement bus
26260,Preston Rail Replacement Bus Stop,-37.7376338,145.0013443,,vic:rail:PRE,1,Level 0,Replacement bus
26261,Regent Rail Replacement Bus Stop,-37.73064575,145.0032456,,vic:rail:REG,1,Level 0,Replacement bus
26262,Reservoir Rail Replacement Bus Stop,-37.7173815,145.0075838,,vic:rail:RES,1,Level 0,Replacement bus
26263,Richmond Rail Replacement Bus Stop,-37.82486644,144.9895747,,vic:rail:RMD,1,Level 0,Replacement bus
26266,Ripponlea Rail Replacement Bus Stop,-37.87716791,144.9978741,,vic:rail:RIP,1,Level 0,Replacement bus
26268,Rosanna Rail Replacement Bus Stop,-37.74324842,145.0667095,,vic:rail:ROS,1,Level 0,Replacement bus
26269,Roxburgh Park Rail Replacement Bus Stop,-37.63891666,144.9349201,,vic:rail:RXP,1,Level 0,Replacement bus
26270,Royal Park Rail Replacement Bus Stop,-37.78064464,144.950829,,vic:rail:RPK,1,Level 0,Replacement bus
26271,Rushall Rail Replacement Bus Stop,-37.78300395,144.9910049,,vic:rail:RUS,1,Level 0,Replacement bus
26272,Ruthven Rail Replacement Bus Stop,-37.70700921,145.0092114,,vic:rail:RUT,1,Level 0,Replacement bus
26273,Sandown Park Rail Replacement Bus Stop,-37.9568073,145.1625907,,vic:rail:SNP,1,Level 0,Replacement bus
26274,Sandringham Rail Replacement Bus Stop,-37.95021745,145.0042913,,vic:rail:SHM,1,Level 0,Replacement bus
26276,Seaholme Rail Replacement Bus Stop,-37.86764832,144.8387354,,vic:rail:SHE,1,Level 0,Replacement bus
26277,Seddon Rail Replacement Bus Stop,-37.80898396,144.8949907,,vic:rail:SEN,1,Level 0,Replacement bus
26279,South Kensington Rail Replacement Bus Stop,-37.79825583,144.9206212,,vic:rail:SKN,1,Level 0,Replacement bus
26280,South Morang Rail Replacement Bus Stop,-37.64929429,145.0670516,,vic:rail:SMG,1,Level 0,Replacement bus
26281,South Yarra Rail Replacement Bus Stop,-37.83911378,144.9921992,,vic:rail:SYR,1,Level 0,Replacement bus
26282,Southern Cross Rail Replacement Bus Stop,-37.81743698,144.9532653,,vic:rail:SSS,1,Level 0,Replacement bus
26283,Southland Rail Replacement Bus Stop,-37.95709729,145.0485615,,vic:rail:SOU,1,Level 0,Replacement bus
26284,Spotswood Rail Replacement Bus Stop,-37.82980812,144.8868434,,vic:rail:SPT,1,Level 0,Replacement bus
26285,Springvale Rail Replacement Bus Stop,-37.94994172,145.1534751,,vic:rail:SPG,1,Level 0,Replacement bus
26286,St Albans Rail Replacement Bus Stop,-37.74504345,144.8006352,,vic:rail:SAB,1,Level 0,Replacement bus
26288,Strathmore Rail Replacement Bus Stop,-37.74413233,144.9278454,,vic:rail:SME,1,Level 0,Replacement bus
26289,Sunbury Rail Replacement Bus Stop,-37.57902248,144.7284419,,vic:rail:SUY,1,Level 0,Replacement bus
26290,Sunshine Rail Replacement Bus Stop,-37.7890493,144.8328405,,vic:rail:SUN,1,Level 0,Replacement bus
26292,Syndal Rail Replacement Bus Stop,-37.87675408,145.1498924,,vic:rail:SYN,1,Level 0,Replacement bus
26294,Thomastown Rail Replacement Bus Stop,-37.68081669,145.0138012,,vic:rail:TSN,1,Level 0,Replacement bus
26295,Thornbury Rail Replacement Bus Stop,-37.75658946,145.0010272,,vic:rail:TBY,1,Level 0,Replacement bus
26296,Toorak Rail Replacement Bus Stop,-37.84961831,145.0121894,,vic:rail:TOR,1,Level 0,Replacement bus
26297,Tooronga Rail Replacement Bus Stop,-37.85065976,145.0426087,,vic:rail:TGA,1,Level 0,Replacement bus
26298,Tottenham Rail Replacement Bus Stop,-37.79953644,144.8627891,,vic:rail:TOT,1,Level 0,Replacement bus
26300,Upfield Rail Replacement Bus Stop,-37.66619995,144.9465098,,vic:rail:UFD,1,Level 0,Replacement bus
26303,Victoria Park Rail Replacement Bus Stop,-37.8004139,144.9930659,,vic:rail:VPK,1,Level 0,Replacement bus
26304,Watergardens Rail Replacement Bus Stop,-37.70072556,144.7743059,,vic:rail:WGS,1,Level 0,Replacement bus
26305,Watsonia Rail Replacement Bus Stop,-37.71091957,145.0842028,,vic:rail:WAT,1,Level 0,Replacement bus
26306,Wattle Glen Rail Replacement Bus Stop,-37.66365189,145.1827446,,vic:rail:WTT,1,Level 0,Replacement bus
26307,Werribee Rail Replacement Bus Stop,-37.89892435,144.6605069,,vic:rail:WER,1,Level 0,Replacement bus
26308,West Footscray Rail Replacement Bus Stop,-37.80231891,144.8841291,,vic:rail:WFY,1,Level 0,Replacement bus
26309,West Richmond Rail Replacement Bus Stop,-37.81517687,144.9905192,,vic:rail:WRM,1,Level 0,Replacement bus
26310,Westall Rail Replacement Bus Stop,-37.93786371,145.138473,,vic:rail:WTL,1,Level 0,Replacement bus
26311,Westgarth Rail Replacement Bus Stop,-37.78145081,144.999824,,vic:rail:WTG,1,Level 0,Replacement bus
26312,Westona Rail Replacement Bus Stop,-37.86444176,144.8124805,,vic:rail:WTO,1,Level 0,Replacement bus
26313,Williams Landing Rail Replacement Bus Stop,-37.86947592,144.7482864,,vic:rail:WLD,1,Level 0,Replacement bus
26317,Windsor Rail Replacement Bus Stop,-37.85633067,144.9924595,,vic:rail:WIN,1,Level 0,Replacement bus
26318,Yarraman Rail Replacement Bus Stop,-37.97793373,145.1918359,,vic:rail:YMN,1,Level 0,Replacement bus
26319,Yarraville Rail Replacement Bus Stop,-37.81618213,144.8893336,,vic:rail:YVE,1,Level 0,Replacement bus
26501,Cardinia Road Station,-38.07129736,145.4376313,,vic:rail:CDA,1,Level 0,1
26502,Cardinia Road Station,-38.07119856,145.4376562,,vic:rail:CDA,1,Level 0,2
26503,Coolaroo Station,-37.66153357,144.9260181,,vic:rail:CLO,1,Level 0,1
26504,Coolaroo Station,-37.66128878,144.9259342,,vic:rail:CLO,1,Level 0,2
26505,Diggers Rest Station,-37.62763267,144.7200962,,vic:rail:DRT,1,Level 0,1
26506,East Pakenham Station,-38.08430484,145.5064845,,vic:rail:EPH,1,Level 0,1
26507,East Pakenham Station,-38.0842422,145.50652,,vic:rail:EPH,1,Level 0,2
26508,Footscray Station,-37.80178019,144.9023731,,vic:rail:FSY,1,Level 0,5
26509,Footscray Station,-37.80179223,144.9025431,,vic:rail:FSY,1,Level 0,6
26510,Frankston Station,-38.14263048,145.1262171,,vic:rail:FKN,1,Level 0,3
26511,Hawkstowe Station,-37.622896,145.0974327,,vic:rail:HWS,1,Level 1,1
26512,Hawkstowe Station,-37.62289454,145.0973421,,vic:rail:HWS,1,Level 1,2
26513,Laverton Station,-37.86371549,144.7727979,,vic:rail:LAV,1,Level 0,3
26514,Lynbrook Station,-38.05718735,145.2492332,,vic:rail:LBK,1,Level 0,1
26515,Lynbrook Station,-38.05713534,145.2493712,,vic:rail:LBK,1,Level 0,2
26516,Merinda Park Station,-38.07934701,145.2637882,,vic:rail:MPK,1,Level 0,2
26517,Mernda Station,-37.60231503,145.1009702,,vic:rail:MDD,1,Level 1,1
26518,Mernda Station,-37.60230511,145.1009138,,vic:rail:MDD,1,Level 1,2
26519,Middle Gorge Station,-37.64380519,145.0924679,,vic:rail:MMR,1,Level 0,1
26520,Middle Gorge Station,-37.64382965,145.0923086,,vic:rail:MMR,1,Level 1,2
26521,Montmorency Station,-37.7152211,145.1213248,,vic:rail:MMY,1,Level 0,2
26522,South Morang Station,-37.64907911,145.0676692,,vic:rail:SMG,1,Level -1,1
26523,South Morang Station,-37.64901587,145.0676595,,vic:rail:SMG,1,Level -1,2
26527,Southland Station,-37.95912748,145.049259,,vic:rail:SOU,1,Level 0,1
26528,Southland Station,-37.95894751,145.0492751,,vic:rail:SOU,1,Level 0,2
26529,Sunbury Station,-37.57944346,144.7278403,,vic:rail:SUY,1,Level 0,1
26530,Sunshine Station,-37.78827451,144.8328518,,vic:rail:SUN,1,Level 0,1
26531,Sunshine Station,-37.78833609,144.8327705,,vic:rail:SUN,1,Level 0,2
26534,Thomastown Station,-37.68031068,145.0142569,,vic:rail:TSN,1,Level 0,2
26535,Union Station,-37.82247773,145.1013738,,vic:rail:UNN,1,Level 0,1
26536,Union Station,-37.82245015,145.1013404,,vic:rail:UNN,1,Level 0,2
26537,Union Station,-37.8223678,145.101263,,vic:rail:UNN,1,Level 0,3
26538,West Footscray Station,-37.80171183,144.8829425,,vic:rail:WFY,1,Level 0,3
26539,Westall Station,-37.93749095,145.1376972,,vic:rail:WTL,1,Level 0,3
26540,Williams Landing Station,-37.87023584,144.7465581,,vic:rail:WLD,1,Level 0,1
26541,Williams Landing Station,-37.87028174,144.7466022,,vic:rail:WLD,1,Level 0,2
3236,Bittern Station,-38.33714729,145.1780441,,vic:rail:BIT,1,Level 0,1
3580,Hastings Station,-38.30555944,145.1859824,,vic:rail:HST,1,Level 0,1
40218,Roxburgh Park Station,-37.63798939,144.9354897,,vic:rail:RXP,1,Level 0,1
40219,Roxburgh Park Station,-37.63802423,144.9354207,,vic:rail:RXP,1,Level 0,2
4318,Tyabb Station,-38.25974029,145.1862311,,vic:rail:TAB,1,Level 0,1
5082,Somerville Station,-38.22543328,145.1763226,,vic:rail:SVE,1,Level 0,1
5701,Baxter Station,-38.19405207,145.1605259,,vic:rail:BXR,1,Level 0,1
5804,Gardiner Station,-37.85279825,145.0509172,,vic:rail:GAR,1,Level 0,2
5966,Glen Iris Station,-37.85924349,145.0581129,,vic:rail:GIR,1,Level 0,1
615,Crib Point Station,-38.36577547,145.2036857,,vic:rail:CPT,1,Level 0,1
7878,Leawarra Station,-38.15206211,145.1396017,,vic:rail:LWA,1,Level 0,1
8266,Glen Iris Station,-37.85919938,145.0581709,,vic:rail:GIR,1,Level 0,2
8272,Darling Station,-37.86894634,145.0628602,,vic:rail:DLG,1,Level 0,1
8691,Darling Station,-37.86892119,145.0629745,,vic:rail:DLG,1,Level 0,2
8705,East Malvern Station,-37.87688031,145.0691101,,vic:rail:EMV,1,Level 0,1
8718,East Malvern Station,-37.87684727,145.0692928,,vic:rail:EMV,1,Level 0,2
8763,Holmesglen Station,-37.87461617,145.089963,,vic:rail:HOL,1,Level 0,1
8766,Holmesglen Station,-37.87456231,145.0899758,,vic:rail:HOL,1,Level 0,2
88,Stony Point Station,-38.37405575,145.2213382,,vic:rail:STY,1,Level 0,1
vic:rail:ACF,Aircraft Railway Station,-37.86660595,144.7608094,1,,1,,
vic:rail:ALB,Albion Railway Station,-37.77765281,144.8247036,1,,1,,
vic:rail:ALM,Alamein Railway Station,-37.86832039,145.0796557,1,,1,,
vic:rail:ALP,Alphington Railway Station,-37.77839363,145.0312549,1,,1,,
vic:rail:ALT,Altona Railway Station,-37.8671476,144.8296447,1,,1,,
vic:rail:ARM,Armadale Railway Station,-37.85645238,145.0193255,1,,1,,
vic:rail:ASH,Ashburton Railway Station,-37.86196753,145.0813438,1,,1,,
vic:rail:ASP,Aspendale Railway Station,-38.02722019,145.1021496,1,,1,,
vic:rail:ASV,Ascot Vale Railway Station,-37.77530609,144.9218207,1,,1,,
vic:rail:ASY,Anstey Railway Station,-37.76124203,144.960684,1,,1,,
vic:rail:AUB,Auburn Railway Station,-37.82239831,145.0458437,1,,1,,
vic:rail:BAT,Batman Railway Station,-37.73352285,144.9628406,1,,1,,
vic:rail:BAY,Bayswater Railway Station,-37.84173004,145.2681364,1,,1,,
vic:rail:BBH,Brighton Beach Railway Station,-37.92648432,144.9891536,1,,1,,
vic:rail:BBN,Blackburn Railway Station,-37.82007075,145.1500135,1,,1,,
vic:rail:BCV,Balaclava Railway Station,-37.86948773,144.9935121,1,,1,,
vic:rail:BEG,Belgrave Railway Station,-37.9091021,145.3552913,1,,1,,
vic:rail:BEL,Bell Railway Station,-37.74556212,145.000155,1,,1,,
vic:rail:BEL_BR1,Bike & Ride,-37.74613901,145.0001622,3,vic:rail:BEL,,Level 0,
vic:rail:BEL_CN1,Concourse,-37.74594237,145.0002583,3,vic:rail:BEL,,Level 0,
vic:rail:BEL_EN1,Bell St,-37.7457536,145.0002861,2,vic:rail:BEL,1,Level 0,
vic:rail:BEL_EN2,Railway Pl,-37.74612214,145.0002308,2,vic:rail:BEL,1,Level 0,
vic:rail:BEL_PR1,Park & Ride,-37.74687841,145.0001877,3,vic:rail:BEL,,Level 0,
vic:rail:BEN,Bentleigh Railway Station,-37.91742457,145.0369951,1,,1,,
vic:rail:BEW,Berwick Railway Station,-38.03998037,145.3454167,1,,1,,
vic:rail:BFD,Beaconsfield Railway Station,-38.05083135,145.3660737,1,,1,,
vic:rail:BIT,Bittern Railway Station,-38.33739032,145.1780265,1,,1,,
vic:rail:BLY,Burnley Railway Station,-37.82756022,145.0075552,1,,1,,
vic:rail:BMS,Broadmeadows Railway Station,-37.68304926,144.9196132,1,,1,,
vic:rail:BON,Bonbeach Railway Station,-38.06547485,145.1201058,1,,1,,
vic:rail:BOR,Boronia Railway Station,-37.86040238,145.2847046,1,,1,,
vic:rail:BOX,Box Hill Railway Station,-37.81922165,145.1214289,1,,1,,
vic:rail:BWD,Burwood Railway Station,-37.85156328,145.0805111,1,,1,,
vic:rail:BWK,Brunswick Railway Station,-37.76772055,144.9595865,1,,1,,
vic:rail:BXR,Baxter Railway Station,-38.19404306,145.1605261,1,,1,,
vic:rail:CAM,Camberwell Railway Station,-37.82656714,145.0586972,1,,1,,
vic:rail:CAR,Carrum Railway Station,-38.07653027,145.1228096,1,,1,,
vic:rail:CBE,Cranbourne Railway Station,-38.09953731,145.280599,1,,1,,
vic:rail:CBY,Canterbury Railway Station,-37.82448518,145.0812242,1,,1,,
vic:rail:CDA,Cardinia Road Railway Station,-38.07129047,145.437791,1,,1,,
vic:rail:CDN,Croydon Railway Station,-37.79530018,145.2804874,1,,1,,
vic:rail:CFD,Caulfield Railway Station,-37.87745946,145.0425248,1,,1,,
vic:rail:CGB,Craigieburn Railway Station,-37.6019248,144.943306,1,,1,,
vic:rail:CHL,Clifton Hill Railway Station,-37.78865745,144.9954167,1,,1,,
vic:rail:CHL_BR1,Bike & Ride,-37.78862432,144.9955879,3,vic:rail:CHL,,Level 0,
vic:rail:CHL_DP1,Ramp,-37.78814003,144.9957259,3,vic:rail:CHL,,Level -1,
vic:rail:CHL_DP2,Underpass,-37.78810586,144.9953067,3,vic:rail:CHL,,Level -1,
vic:rail:CHL_DP3,Ramp,-37.78805406,144.9949107,3,vic:rail:CHL,,Level -1,
vic:rail:CHL_EN1,John St,-37.78849918,144.9956481,2,vic:rail:CHL,1,Level 0,
vic:rail:CHL_EN2,Hoddle St,-37.78860913,144.995225,2,vic:rail:CHL,1,Level 0,
vic:rail:CHL_EN3,Hoddle St,-37.78877108,144.9952092,2,vic:rail:CHL,1,Level 0,
vic:rail:CHL_PR1,Park & Ride 1,-37.78928973,144.9955018,3,vic:rail:CHL,,Level 0,
vic:rail:CHL_PR2,Park & Ride 2,-37.7878512,144.9956997,3,vic:rail:CHL,,Level 0,
vic:rail:CHM,Chatham Railway Station,-37.82429952,145.0886479,1,,1,,
vic:rail:CLA,Clayton Railway Station,-37.92468255,145.1205344,1,,1,,
vic:rail:CLO,Coolaroo Railway Station,-37.66111042,144.9260412,1,,1,,
vic:rail:CNE,Carnegie Railway Station,-37.88624148,145.0585751,1,,1,,
vic:rail:COB,Coburg Railway Station,-37.74234502,144.9633363,1,,1,,
vic:rail:CPT,Crib Point Railway Station,-38.36612338,145.2040433,1,,1,,
vic:rail:CSA,Chelsea Railway Station,-38.05329032,145.1166795,1,,1,,
vic:rail:CTM,Cheltenham Railway Station,-37.96664989,145.0545579,1,,1,,
vic:rail:CWD,Collingwood Railway Station,-37.80452593,144.9937497,1,,1,,
vic:rail:CWD_DP1,Decision Point 1,-37.80479732,144.9938105,3,vic:rail:CWD,,Level 1,
vic:rail:CWD_DP2,Decision Point 2,-37.80482008,144.99356,3,vic:rail:CWD,,Level 1,
vic:rail:CWD_EN1,Stanton St,-37.8042678,144.9939384,2,vic:rail:CWD,1,Level 0,
vic:rail:CWD_EN2,Gipps St,-37.80477988,144.993845,2,vic:rail:CWD,1,Level 0,
vic:rail:CWD_EN3,Gipps St,-37.80504914,144.9937809,2,vic:rail:CWD,1,Level 0,
vic:rail:CWD_EN4,Stanton St,-37.80425338,144.9936208,2,vic:rail:CWD,1,Level 0,
vic:rail:CWD_EN5,Gipps St,-37.80473882,144.9935508,2,vic:rail:CWD,1,Level 0,
vic:rail:CWD_EN6,Gipps St,-37.80496363,144.993522,2,vic:rail:CWD,1,Level 0,
vic:rail:CWD_PR1,Park & Ride,-37.80471103,144.9935061,3,vic:rail:CWD,,Level 0,
vic:rail:CXT,Croxton Railway Station,-37.764101,144.9970562,1,,1,,
vic:rail:CXT_EN1,Stott St,-37.76392625,144.9973788,2,vic:rail:CXT,1,Level 0,
vic:rail:CXT_EN2,Stott St,-37.76443834,144.9972855,2,vic:rail:CXT,1,Level 0,
vic:rail:CXT_EN3,Spencer St,-37.76376212,144.9967361,2,vic:rail:CXT,1,Level 0,
vic:rail:CXT_EN4,Spencer St,-37.76402277,144.996695,2,vic:rail:CXT,1,Level 0,
vic:rail:CXT_EN5,Railway Parade,-37.76471848,144.9968011,2,vic:rail:CXT,1,Level 0,
vic:rail:CXT_EN6,Stott St,-37.76407707,144.9972385,2,vic:rail:CXT,1,Level 1,
vic:rail:CXT_EN7,Spencer St,-37.76404406,144.9968875,2,vic:rail:CXT,1,Level 1,
vic:rail:DBN,Darebin Railway Station,-37.77496341,145.038476,1,,1,,
vic:rail:DCK,Diamond Creek Railway Station,-37.67337905,145.1585382,1,,1,,
vic:rail:DEN,Dennis Railway Station,-37.77918729,145.0082416,1,,1,,
vic:rail:DLG,Darling Railway Station,-37.86895684,145.0629508,1,,1,,
vic:rail:DNG,Dandenong Railway Station,-37.98996792,145.2097254,1,,1,,
vic:rail:DRT,Diggers Rest Railway Station,-37.62696051,144.7198222,1,,1,,
vic:rail:EAG,Eaglemont Railway Station,-37.76358553,145.0539427,1,,1,,
vic:rail:ECM,East Camberwell Railway Station,-37.82589419,145.0681903,1,,1,,
vic:rail:EDI,Edithvale Railway Station,-38.03653574,145.1075834,1,,1,,
vic:rail:ELS,Elsternwick Railway Station,-37.88475311,145.0008979,1,,1,,
vic:rail:ELT,Eltham Railway Station,-37.71354967,145.147822,1,,1,,
vic:rail:EMV,East Malvern Railway Station,-37.87692101,145.0693932,1,,1,,
vic:rail:EPH,East Pakenham Railway Station ,-38.08441136,145.5063569,1,,1,,
vic:rail:EPP,Epping Railway Station,-37.65217784,145.0310793,1,,1,,
vic:rail:EPP_BR1,Bike and Ride,-37.65228518,145.0310312,3,vic:rail:EPP,,Level 0,
vic:rail:EPP_EN1,Cooper St,-37.65219472,145.0310109,2,vic:rail:EPP,1,Level 0,
vic:rail:EPP_PR1,Park and Ride 1,-37.65233253,145.0300891,3,vic:rail:EPP,,Level 0,
vic:rail:EPP_PR2,Park and Ride 2,-37.65240046,145.0287612,3,vic:rail:EPP,,Level 0,
vic:rail:EPP_PR3,Park and Ride 3,-37.6516739,145.0322035,3,vic:rail:EPP,,Level 0,
vic:rail:EPP_PR4,Park and Ride 4,-37.65149121,145.0315169,3,vic:rail:EPP,,Level 0,
vic:rail:EPP_TX1,Taxi Zone,-37.65251537,145.0318639,3,vic:rail:EPP,,Level 0,
vic:rail:ERM,East Richmond Railway Station,-37.82639995,144.9970657,1,,1,,
vic:rail:ESD,Essendon Railway Station,-37.7560117,144.9161975,1,,1,,
vic:rail:FAK,Fawkner Railway Station,-37.71462129,144.960545,1,,1,,
vic:rail:FBD,Flemington Bridge Railway Station,-37.78813995,144.9393233,1,,1,,
vic:rail:FFD,Fairfield Railway Station,-37.77917126,145.0169053,1,,1,,
vic:rail:FGS,Flagstaff Railway Station,-37.8119815,144.9556651,1,,1,,
vic:rail:FKN,Frankston Railway Station,-38.14299007,145.1261623,1,,1,,
vic:rail:FSS,Flinders Street Railway Station,-37.81830513,144.9669644,1,,1,,
vic:rail:FSY,Footscray Railway Station,-37.80141343,144.9020201,1,,1,,
vic:rail:FTG,Ferntree Gully Railway Station,-37.88169799,145.2952513,1,,1,,
vic:rail:GAR,Gardiner Railway Station,-37.85327908,145.0516547,1,,1,,
vic:rail:GBV,Glenbervie Railway Station,-37.74720985,144.9209387,1,,1,,
vic:rail:GFE,Glenferrie Railway Station,-37.82146682,145.0364388,1,,1,,
vic:rail:GHY,Glen Huntly Railway Station ,-37.88971946,145.0422229,1,,1,,
vic:rail:GIN,Ginifer Railway Station,-37.76008529,144.811359,1,,1,,
vic:rail:GIR,Glen Iris Railway Station,-37.85930842,145.0582249,1,,1,,
vic:rail:GOW,Gowrie Railway Station,-37.700678,144.9588743,1,,1,,
vic:rail:GRN,Greensborough Railway Station,-37.70371477,145.1079359,1,,1,,
vic:rail:GRY,Glenroy Railway Station,-37.70453633,144.9172204,1,,1,,
vic:rail:GVE,Gardenvale Railway Station,-37.89669508,145.0041684,1,,1,,
vic:rail:GWY,Glen Waverley Railway Station,-37.87950407,145.1620576,1,,1,,
vic:rail:HAM,Hampton Railway Station,-37.9379864,145.0015045,1,,1,,
vic:rail:HAW,Hawthorn Railway Station,-37.82182601,145.0228987,1,,1,,
vic:rail:HBE,Hurstbridge Railway Station,-37.63939817,145.1920169,1,,1,,
vic:rail:HBE_BR1,Bike & Ride,-37.63977136,145.1922572,3,vic:rail:HBE,,Level 0,
vic:rail:HBE_ConX,Connex,-37.63939817,145.1920169,,vic:rail:HBE,,Level 0,
vic:rail:HBE_EN1,Main Rd,-37.63959758,145.1920914,2,vic:rail:HBE,1,Level 0,
vic:rail:HBE_PR1,Park & Ride 1,-37.63942209,145.1924016,3,vic:rail:HBE,,Level 0,
vic:rail:HBE_PR2,Park & Ride 2,-37.63977535,145.1925177,3,vic:rail:HBE,,Level 0,
vic:rail:HBE_PR3,Park & Ride 3,-37.63840825,145.1926982,3,vic:rail:HBE,,Level 0,
vic:rail:HBE_PR4,Park & Ride 4,-37.63984616,145.191258,3,vic:rail:HBE,,Level 0,
vic:rail:HCG,Hoppers Crossing Railway Station,-37.88338025,144.700747,1,,1,,
vic:rail:HDB,Heidelberg Railway Station,-37.75707293,145.0606855,1,,1,,
vic:rail:HEY,Heyington Railway Station,-37.83465462,145.0226471,1,,0,,
vic:rail:HIG,Highett Railway Station,-37.948425,145.0418718,1,,1,,
vic:rail:HKN,Hawksburn Railway Station,-37.84459087,145.0021421,1,,1,,
vic:rail:HLM,Hallam Railway Station,-38.01774038,145.2697768,1,,1,,
vic:rail:HMT,Heathmont Railway Station,-37.82832227,145.2445554,1,,1,,
vic:rail:HOL,Holmesglen Railway Station,-37.87440222,145.090662,1,,1,,
vic:rail:HST,Hastings Railway Station,-38.30565853,145.1859799,1,,1,,
vic:rail:HTD,Heatherdale Railway Station,-37.8188232,145.2139704,1,,1,,
vic:rail:HUG,Hughesdale Railway Station,-37.89419074,145.0761861,1,,1,,
vic:rail:HUN,Huntingdale Railway Station,-37.91101734,145.1023643,1,,1,,
vic:rail:HWL,Hartwell Railway Station,-37.84398457,145.0755596,1,,1,,
vic:rail:HWS,Hawkstowe Railway Station,-37.62297489,145.0972947,1,,1,,
vic:rail:HWS_BR1,Bike and Ride 1,-37.62242793,145.0974673,3,vic:rail:HWS,,Level 0,
vic:rail:HWS_DP1,Decision Point 1,-37.62270628,145.0974035,3,vic:rail:HWS,,Level 0,
vic:rail:HWS_EN1,Hawkstowe Pde,-37.62244521,145.0974215,2,vic:rail:HWS,1,Level 0,
vic:rail:HWS_EN2,Hawkstowe Pde,-37.62263311,145.0973374,2,vic:rail:HWS,1,Level 0,
vic:rail:HWS_LI1,lift,-37.62258917,145.0974065,3,vic:rail:HWS,,Level 0,
vic:rail:HWS_PR1,Park and Ride 1,-37.62151758,145.0969013,3,vic:rail:HWS,,Level 0,
vic:rail:HWS_TX1,Taxi Zone,-37.62218786,145.0971108,3,vic:rail:HWS,,Level 0,
vic:rail:IVA,Ivanhoe Railway Station,-37.76889674,145.0454252,1,,1,,
vic:rail:JAC,Jacana Railway Station,-37.69513079,144.9158505,1,,1,,
vic:rail:JLI,Jolimont-MCG Railway Station,-37.81652702,144.9840983,1,,1,,
vic:rail:JLI_DP1,Decision point 1,-37.81685959,144.9851003,3,vic:rail:JLI,,Level -1,
vic:rail:JLI_DP2,Decision point 2,-37.81647019,144.9844634,3,vic:rail:JLI,,Level -1,
vic:rail:JLI_DP3,Decision point 3,-37.81671585,144.985127,3,vic:rail:JLI,,Level 0,
vic:rail:JLI_DP4,Decision point 4,-37.81665144,144.9834702,3,vic:rail:JLI,,Level -1,
vic:rail:JLI_DP5,Decision point 5,-37.81636398,144.9835234,3,vic:rail:JLI,,Level 0,
vic:rail:JLI_EN1,Yarra Park,-37.81671223,144.9843887,2,vic:rail:JLI,1,Level -1,
vic:rail:JLI_EN2,Wellington Pde,-37.81620495,144.9837095,2,vic:rail:JLI,1,Level 0,
vic:rail:JLI_EN3,Yarra Park,-37.81663084,144.9838456,2,vic:rail:JLI,1,Level -1,
vic:rail:JLI_EN4,Wellington Pde,-37.81643481,144.9839759,2,vic:rail:JLI,1,Level -1,
vic:rail:JOR,Jordanville Railway Station,-37.87360339,145.1120902,1,,1,,
vic:rail:JWL,Jewell Railway Station,-37.77498702,144.9587169,1,,1,,
vic:rail:KAN,Kananook Railway Station,-38.12175231,145.1353749,1,,1,,
vic:rail:KEN,Kensington Railway Station,-37.79378022,144.9305244,1,,1,,
vic:rail:KPK,Keon Park Railway Station,-37.69487012,145.0118838,1,,1,,
vic:rail:KPK_BR1,Bike & Ride,-37.69599324,145.0116837,3,vic:rail:KPK,,Level 0,
vic:rail:KPK_CN1,Concourse,-37.69570537,145.0117141,3,vic:rail:KPK,,Level 1,
vic:rail:KPK_EN1,Keon Pde,-37.69554361,145.0117411,2,vic:rail:KPK,1,Level 0,
vic:rail:KPK_EN2,High St,-37.69586713,145.0116871,2,vic:rail:KPK,1,Level 0,
vic:rail:KPK_KR1,Kiss & Ride,-37.69649348,145.0114208,3,vic:rail:KPK,,Level 0,
vic:rail:KPK_PR1,Park & Ride 1,-37.69412342,145.0119605,3,vic:rail:KPK,,Level 0,
vic:rail:KPK_PR2,Park & Ride 2,-37.69721239,145.0112995,3,vic:rail:KPK,,Level 0,
vic:rail:KPL,Keilor Plains Railway Station,-37.72927934,144.7937381,1,,1,,
vic:rail:KYG,Kooyong Railway Station,-37.83992894,145.0335516,1,,1,,
vic:rail:LAB,Laburnum Railway Station,-37.82078023,145.1407027,1,,1,,
vic:rail:LAL,Lalor Railway Station,-37.66585075,145.0171932,1,,1,,
vic:rail:LAL_EN1,Station St,-37.66626473,145.0171595,2,vic:rail:LAL,1,Level 0,
vic:rail:LAL_PR1,Park & Ride 1,-37.66521113,145.017743,3,vic:rail:LAL,,Level 0,
vic:rail:LAL_PR2,Park & Ride 2,-37.66548509,145.0168855,3,vic:rail:LAL,,Level 0,
vic:rail:LAL_PR3,Park & Ride 3,-37.66350861,145.0177883,3,vic:rail:LAL,,Level 0,
vic:rail:LAL_TX1,Taxi zone 1,-37.6647859,145.0171081,3,vic:rail:LAL,,Level 0,
vic:rail:LAV,Laverton Railway Station,-37.86369404,144.7726167,1,,1,,
vic:rail:LBK,Lynbrook Railway Station,-38.05734985,145.2492521,1,,1,,
vic:rail:LIL,Lilydale Railway Station,-37.75721264,145.3458223,1,,1,,
vic:rail:LWA,Leawarra Railway Station,-38.152034,145.139534,1,,1,,
vic:rail:MAC,Macaulay Railway Station,-37.79426673,144.9361663,1,,1,,
vic:rail:MAL,Malvern Railway Station,-37.8662533,145.0292939,1,,1,,
vic:rail:MBN,Middle Brighton Railway Station,-37.91513441,144.9962991,1,,1,,
vic:rail:MCD,Macleod Railway Station,-37.7260123,145.0691433,1,,1,,
vic:rail:MCE,Melbourne Central Railway Station,-37.80993896,144.9626049,1,,1,,
vic:rail:MCH,Mitcham Railway Station,-37.81816668,145.1922082,1,,1,,
vic:rail:MCK,McKinnon Railway Station,-37.91030903,145.038299,1,,1,,
vic:rail:MDD,Mernda Railway Station,-37.60254907,145.1009529,1,,1,,
vic:rail:MDD_BR1,Bike and Ride,-37.60243841,145.1007972,3,vic:rail:MDD,,Level 0,
vic:rail:MDD_CN1,Concourse,-37.60296992,145.1007836,3,vic:rail:MDD,,Level 0,
vic:rail:MDD_DP1,Decision point 1,-37.60098577,145.1012532,3,vic:rail:MDD,,Level 0,
vic:rail:MDD_DP2,Decision point 2,-37.60132664,145.1011539,3,vic:rail:MDD,,Level 1,
vic:rail:MDD_EN1,Bridge Inn Rd,-37.60242258,145.1009335,2,vic:rail:MDD,1,Level 0,
vic:rail:MDD_EN2,Schotters Rd,-37.60098613,145.1012759,2,vic:rail:MDD,1,Level 0,
vic:rail:MDD_KR1,Kiss and Ride,-37.60270013,145.1013795,3,vic:rail:MDD,,Level 0,
vic:rail:MDD_PR1,Park and Ride 1,-37.60223897,145.1018444,3,vic:rail:MDD,,Level 0,
vic:rail:MDD_PR2,Park and Ride 2,-37.59827539,145.1019564,3,vic:rail:MDD,,Level 0,
vic:rail:MDD_TX1,Taxi Zone,-37.60176615,145.1015845,3,vic:rail:MDD,,Level 0,
vic:rail:MEN,Mentone Railway Station,-37.98277704,145.0658023,1,,1,,
vic:rail:MER,Merri Railway Station,-37.77784668,144.9929725,1,,1,,
vic:rail:MER_DP1,Decision Point 1,-37.77784115,144.993177,3,vic:rail:MER,,Level 1,
vic:rail:MER_DP2,Decision Point 2,-37.77839673,144.9929917,3,vic:rail:MER,,Level 0,
vic:rail:MER_DP3,Decision Point 3,-37.77834685,144.9927092,3,vic:rail:MER,,Level 0,
vic:rail:MER_EN1,Bridge St/Railway St,-37.7778517,144.9932676,2,vic:rail:MER,1,Level 0,
vic:rail:MER_EN2,Bridge St,-37.77795864,144.9931965,2,vic:rail:MER,1,Level 0,
vic:rail:MER_EN3,S Park St,-37.77777229,144.9928383,2,vic:rail:MER,1,Level 0,
vic:rail:MER_PR1,Park & Ride,-37.77785286,144.9933356,3,vic:rail:MER,,Level 0,
vic:rail:MFY,Middle Footscray Railway Station,-37.8025047,144.8914721,1,,1,,
vic:rail:MLD,Moreland Railway Station,-37.75448484,144.961823,1,,1,,
vic:rail:MLK,Mooroolbark Railway Station,-37.78474883,145.3124024,1,,1,,
vic:rail:MMR,Middle Gorge Railway Station,-37.64403391,145.092122,1,,1,,
vic:rail:MMR_BR1,Bike and Ride,-37.64365354,145.0920071,3,vic:rail:MMR,,Level 0,
vic:rail:MMR_DP1,Decision Point 1,-37.64351765,145.0925206,3,vic:rail:MMR,,Level 1,
vic:rail:MMR_DP2,Decision Point 2,-37.6436831,145.0927203,3,vic:rail:MMR,,Level 0,
vic:rail:MMR_DP3,Underpass,-37.6434498,145.092783,2,vic:rail:MMR,1,Level -1,
vic:rail:MMR_EN1,Old Plenty Rd,-37.64386125,145.0925911,2,vic:rail:MMR,1,Level 0,
vic:rail:MMR_EN2,Williamsons Rd,-37.64358605,145.0922921,2,vic:rail:MMR,1,Level 1,
vic:rail:MMR_EN3,Williamsons Rd,-37.64324153,145.092165,2,vic:rail:MMR,1,Level 0,
vic:rail:MMR_PR1,Park and Ride,-37.64520544,145.0904486,3,vic:rail:MMR,,Level 0,
vic:rail:MMR_TX1,Taxi Zone,-37.64403186,145.0925527,3,vic:rail:MMR,,Level 0,
vic:rail:MMY,Montmorency Railway Station,-37.71529624,145.1215157,1,,1,,
vic:rail:MOR,Mordialloc Railway Station,-38.00658295,145.0876594,1,,1,,
vic:rail:MPD,Moonee Ponds Railway Station,-37.76570666,144.9191607,1,,1,,
vic:rail:MPK,Merinda Park Railway Station,-38.07900048,145.2635114,1,,1,,
vic:rail:MRB,Murrumbeena Railway Station,-37.89019832,145.0673749,1,,1,,
vic:rail:MRN,Moorabbin Railway Station,-37.93435329,145.0367383,1,,1,,
vic:rail:MRO,Morradoo Railway Station,-38.35403334,145.1896025,1,,1,,
vic:rail:MWY,Mount Waverley Railway Station,-37.87526408,145.1280441,1,,1,,
vic:rail:MYN,Merlynston Railway Station,-37.72093389,144.9613136,1,,1,,
vic:rail:NBN,North Brighton Railway Station,-37.90488721,145.002605,1,,1,,
vic:rail:NCE,Northcote Railway Station,-37.76986537,144.9952772,1,,1,,
vic:rail:NCE_DP1,Decision Point 1,-37.77059422,144.9952121,3,vic:rail:NCE,,Level 0,
vic:rail:NCE_DP2,Decision point 2,-37.7704905,144.9949425,3,vic:rail:NCE,,Level -1,
vic:rail:NCE_DP3,Decision point 3,-37.77043337,144.9947624,3,vic:rail:NCE,,Level 0,
vic:rail:NCE_EN1,Herbert St,-37.76960228,144.9957044,2,vic:rail:NCE,1,Level 0,
vic:rail:NCE_EN2,Herbert St,-37.77010286,144.9954638,2,vic:rail:NCE,1,Level 0,
vic:rail:NCE_EN3,Hartington St,-37.76978121,144.9950978,2,vic:rail:NCE,1,Level 0,
vic:rail:NCE_EN4,Hartington St,-37.76995197,144.9950705,2,vic:rail:NCE,2,Level 0,
vic:rail:NCE_PR1,Park & Ride,-37.76992386,144.9955367,3,vic:rail:NCE,,Level 0,
vic:rail:NKT,Newmarket Railway Station,-37.78732767,144.9289785,1,,1,,
vic:rail:NME,North Melbourne Railway Station,-37.80630984,144.9415102,1,,1,,
vic:rail:NPK,Noble Park Railway Station,-37.96661867,145.1763248,1,,1,,
vic:rail:NPT,Newport Railway Station,-37.84272637,144.8835883,1,,1,,
vic:rail:NRM,North Richmond Railway Station,-37.81039836,144.9925003,1,,1,,
vic:rail:NRM_DP1,Decision point 1,-37.81041007,144.992659,3,vic:rail:NRM,,Level 1,
vic:rail:NRM_DP2,Decision point 2,-37.81036882,144.9923534,3,vic:rail:NRM,,Level 1,
vic:rail:NRM_DP3,Decision point 3,-37.80980792,144.9927548,3,vic:rail:NRM,,Level 0,
vic:rail:NRM_DP4,Decision point 4,-37.81099422,144.9925636,3,vic:rail:NRM,,Level 0,
vic:rail:NRM_DP5,Decision point 5,-37.80980288,144.9924596,3,vic:rail:NRM,,Level 0,
vic:rail:NRM_DP6,Decision point 6,-37.81096177,144.9922465,3,vic:rail:NRM,,Level 0,
vic:rail:NRM_EN1,Victoria St,-37.80981712,144.9927659,2,vic:rail:NRM,1,Level 0,
vic:rail:NRM_EN2,Elizabeth St,-37.81099422,144.9925636,2,vic:rail:NRM,1,Level 0,
vic:rail:NRM_EN3,Victoria St,-37.8098117,144.992448,2,vic:rail:NRM,1,Level 0,
vic:rail:NRM_EN4,Elizabeth St,-37.81096177,144.9922465,2,vic:rail:NRM,1,Level 0,
vic:rail:NWA,Narre Warren Railway Station,-38.02777361,145.303993,1,,1,,
vic:rail:NWG,Nunawading Railway Station,-37.82061218,145.1748915,1,,1,,
vic:rail:NWN,North Williamstown Railway Station,-37.85733348,144.8890695,1,,1,,
vic:rail:OAK,Oakleigh Railway Station,-37.90037214,145.0883079,1,,1,,
vic:rail:OFC,Officer Railway Station,-38.06614572,145.4109872,1,,1,,
vic:rail:OKP,Oak Park Railway Station,-37.71794973,144.9215188,1,,1,,
vic:rail:OMD,Ormond Railway Station,-37.90321167,145.0396134,1,,1,,
vic:rail:PAR,Parliament Railway Station,-37.811337,144.973119,1,,1,,
vic:rail:PAT,Patterson Railway Station,-37.92514919,145.03547,1,,1,,
vic:rail:PKD,Parkdale Railway Station,-37.99307882,145.0763268,1,,1,,
vic:rail:PKM,Pakenham Railway Station,-38.08061397,145.4863791,1,,1,,
vic:rail:PRA,Prahran Railway Station,-37.84951848,144.9898599,1,,1,,
vic:rail:PRE,Preston Railway Station,-37.73867424,145.000522,1,,1,,
vic:rail:PRE_BR1,Bike & Ride 1,-37.73853031,145.0005372,3,vic:rail:PRE,,Level 0,
vic:rail:PRE_BR2,Bike & Ride 2,-37.73924308,145.0005861,3,vic:rail:PRE,,Level 0,
vic:rail:PRE_CN1,Concourse,-37.73874688,145.0005541,3,vic:rail:PRE,,Level 0,
vic:rail:PRE_EN1,Murray Rd,-37.73854909,145.0005821,2,vic:rail:PRE,1,Level 0,
vic:rail:PRE_EN2,Cramer St,-37.7389623,145.0005029,2,vic:rail:PRE,1,Level 0,
vic:rail:PRE_KR1,Kiss & Ride 1,-37.73921163,145.000326,3,vic:rail:PRE,,Level 0,
vic:rail:PRE_PR1,Park & Ride 1,-37.7370588,145.0009172,3,vic:rail:PRE,,Level 0,
vic:rail:PRE_PR2,Park & Ride 2,-37.73923422,145.0000643,3,vic:rail:PRE,,Level 0,
vic:rail:PVL,Pascoe Vale Railway Station,-37.73075596,144.9281956,1,,1,,
vic:rail:RCE,Flemington Racecourse Railway Station,-37.78721073,144.9075771,1,,1,,
vic:rail:REG,Regent Railway Station,-37.72840277,145.0027726,1,,1,,
vic:rail:REG_DP1,Decision Point,-37.72801909,145.0029985,3,vic:rail:REG,,Level -1,
vic:rail:REG_EN1,Robinson Rd,-37.72848002,145.0030768,2,vic:rail:REG,1,Level 0,
vic:rail:REG_EN2,Robinson Rd,-37.72830984,145.0031381,2,vic:rail:REG,1,Level 0,
vic:rail:REG_EN3,Robinson Rd,-37.72864159,145.0030385,2,vic:rail:REG,1,Level 0,
vic:rail:REG_EN4,Robinson Rd,-37.72847714,145.0029067,2,vic:rail:REG,1,Level -1,
vic:rail:REG_EN5,Verdun Grove,-37.72837344,145.0026372,2,vic:rail:REG,1,Level 0,
vic:rail:REG_PR1,Park & Ride 1,-37.72794049,145.0026148,3,vic:rail:REG,,Level 0,
vic:rail:REG_PR2,Park & Ride 2,-37.72979017,145.0027466,3,vic:rail:REG,,Level 0,
vic:rail:REG_PR3,Park & Ride 3,-37.72888095,145.0028051,3,vic:rail:REG,,Level 0,
vic:rail:REG_PR4,Park & Ride 4,-37.72787957,145.0032745,3,vic:rail:REG,,Level 0,
vic:rail:RES,Reservoir Railway Station,-37.71688492,145.0069958,1,,1,,
vic:rail:RES_BR1,Bike & Ride,-37.71698803,145.0072313,3,vic:rail:RES,,Level 0,
vic:rail:RES_DP1,Decision point 1,-37.71665205,145.0070815,3,vic:rail:RES,,Level 0,
vic:rail:RES_DP2,Decision point 2,-37.71642897,145.0072122,3,vic:rail:RES,,Level 0,
vic:rail:RES_EN1,High St,-37.71660031,145.007219,2,vic:rail:RES,1,Level 0,
vic:rail:RES_EN2,Spring St,-37.71647209,145.0070976,2,vic:rail:RES,1,Level 0,
vic:rail:RES_LI1,Lift 1,-37.71680385,145.006998,3,vic:rail:RES,,Level 0,
vic:rail:RES_LI2,Lift 2,-37.71636649,145.007248,3,vic:rail:RES,,Level 0,
vic:rail:RES_PR1,Park & Ride 1,-37.71729161,145.0070643,3,vic:rail:RES,,Level 0,
vic:rail:RES_PR2,Park & Ride 2,-37.71813834,145.0059752,3,vic:rail:RES,,Level 0,
vic:rail:RES_PR3,Park & Ride 3,-37.71966852,145.0058661,3,vic:rail:RES,,Level 0,
vic:rail:RIP,Ripponlea Railway Station,-37.87596086,144.9952578,1,,1,,
vic:rail:RIV,Riversdale Railway Station,-37.83150543,145.069646,1,,1,,
vic:rail:RMD,Richmond Railway Station,-37.82407446,144.9901643,1,,1,,
vic:rail:ROS,Rosanna Railway Station,-37.7428786,145.0661403,1,,1,,
